"sno","sna","tot","sbi","sarea","mday","lat","lng","ar","sareaen","snaen","aren","bemp","act"
"1001","大鵬華城","38","16","新店區","20171124175936","24.99116","121.53398","新北市新店區中正路700巷3號","Xindian Dist.","Dapeng Community","No. 3, Lane 700 Chung Cheng Road, Xindian District","21","1"
"1002","汐止火車站","56","33","汐止區","20171124175843","25.068914","121.662748","南昌街/新昌路口(西側廣場)","Xizhi Dist.","Xizhi Railway Station","Nanchang St./Xinchang Rd.","21","1"
"1003","汐止區公所","46","11","汐止區","20171124175928","25.064162","121.658301","新台五路一段/仁愛路口(新台五路側汐止地政事務所前機車停車場)","Xizhi Dist.","Xizhi Dist. Office","Sec. 1, Xintai 5th Rd./Ren’ai Rd.","33","1"
"1004","國泰綜合醫院","56","21","汐止區","20171124175940","25.07315","121.662555","建成路78號對面停車場","Xizhi Dist.","Cathay General Hospital","No78, Jiancheng Rd","34","1"
"1005","裕隆公園","40","27","新店區","20171124175820","24.979649","121.546319","寶中路/品牌路口(東南側)","Xindian Dist.","Yulon Park","Baozhong Rd./","13","1"
"1006","捷運大坪林站(3號出口)","32","10","新店區","20171124175930","24.983977","121.541721","寶安街/寶安街58巷(西北側)","Xindian Dist.","MRT Dapinglin Sta.(Exit.3)","Bao'an St./Ln. 58,Bao'an St","22","1"
"1007","汐科火車站(北)","34","29","汐止區","20171124175931","25.064106","121.653019","大同路二段184巷/龍安路202巷(西側)(汐科火車站北站出口前)","Xizhi Dist.","Xike Railway Station(North)","Ln. 184,Sec. 2, Datong Rd./Ln. 202,Long’an Rd.","5","1"
"1008","興華公園","40","20","三重區","20171124175939","25.060125","121.483101","重陽路一段120巷/中華路2巷","Sanchong Dist.","Xinghua Park","Ln. 120, Sec. 1, Chongyang Rd./Ln. 2, Zhonghua Rd.","20","1"
"1009","三重國民運動中心","68","6","三重區","20171124175927","25.054391","121.488489","集美街/重新路四段184巷","Sanchong Dist.","San chong Civil Sports Center","Jimei St., Sanchong Dist./Ln. 184, Sec. 4, Chongxin Rd.","62","1"
"1010","捷運三重站(3號出口)","34","16","三重區","20171124175918","25.055883","121.484739","捷運路/捷運路37巷","Sanchong Dist.","MRT Sanchong Sta. (Exit 3)","Jieyun Rd./Ln. 37, Jieyun Rd.","18","1"
"1011","樟樹國小","48","19","汐止區","20171124175822","25.066688","121.640367","樟樹二路/樟樹一路141巷","Xizhi Dist.","Zhangshu Elementary School","Zhangshu 2nd Rd./Ln. 141, Zhangshu 1st Rd.","27","1"
"1012","金龍國小","52","22","汐止區","20171124175932","25.0688","121.628908","中興路/民族六街","Xizhi Dist.","Jinlong Elementary School","Zhongxing Rd./Minzu 6th St.","28","1"
"1013","白雲國小","46","19","汐止區","20171124175944","25.047578","121.618888","民權街二段90號","Xizhi Dist.","Pai Yun Primary School","No.90, Sec. 2, Minquan St.","25","1"
"1014","東勢宜興活動中心","52","20","汐止區","20171124175832","25.039031","121.624333","東勢街/芳園街","Xizhi Dist.","Yixing-Dongshi Civic Center","Dongshi St./Fangyuan St.","29","1"
"1015","後港公園","40","22","新莊區","20171124175917","25.025358","121.428348","建安街/建安街57巷","Xinzhuang Dist.","Hougang Park","Ln. 57, Jian’an St./Jian’an St.","18","1"
"1016","福營行政中心","42","17","新莊區","20171124175931","25.0241250","121.423870","四維路17號-20號","Xinzhuang Dist.","Fuying Administration Center","No.17, Siwei Rd./No.20, Siwei Rd.","24","1"
"1017","西盛公園","36","21","新莊區","20171124175926","25.017113","121.428048","新莊區西盛街/西盛街201巷","Xinzhuang Dist.","Xisheng Park","Xisheng St./Ln. 201, Xisheng St.","15","1"
"1018","忠誠里(北新路2段97巷)","40","19","新店區","20171124175918","24.974272","121.542779","北新路二段/北新路二段97巷","Xindian Dist.","Zhongcheng Village (Ln. 97, Sec. 2, Beixin Rd)","Sec. 2, Beixin Rd./Ln. 97, Sec. 2, Beixin Rd.","20","1"
"1019","仁愛廣場","50","16","蘆洲區","20171124175933","25.090565","121.471621","民權路139號旁","Luzhou Dist.","Renai Square","No.139, Minquan Rd.","34","1"
"1020","重陽國小","42","8","三重區","20171124175940","25.066245","121.484337","中正北路/三民街175巷","Sanchong Dist.","Chong Yang Elementary School","Zhongzheng N. Rd./Ln. 175, Sanmin St.","33","1"
"1021","明志國中","50","0","三重區","20171124175936","25.063396","121.488982","中正北路107號","Sanchong Dist.","Mingzhi Junior High School","No.107, Zhongzheng N. Rd","49","1"
"1022","三重商工","64","0","三重區","20171124175934","25.068681","121.480705","中正北路/中正北路276巷","Sanchong Dist.","San-Chung Commercial and Industrial Vocational High School","Ln. 276, Zhongzheng N. Rd.","63","1"
"1023","捷運新莊站(1號出口)","58","30","新莊區","20171124175924","25.036152","121.452069","中正路/中華路一段","Xinzhuang Dist.","MRT Xinzhuang Sta. (Exit 1)","Zhongzheng Rd./Sec. 1, Zhonghua Rd.","23","1"
"1024","原興廣場","52","40","汐止區","20171124175944","25.065042","121.633149","原興路/中興路150巷","Xizhi Dist.","Yuan Xing Square","Yuanxing Rd./Ln. 150, Zhongxing Rd.","9","1"
"1025","文化白雲公園","76","15","汐止區","20171124175921","25.056875","121.655207","水源路二段42號訖水源路二段68號","Xizhi Dist.","Wenhua-Baiyun Park","No.42 to No.68, Sec. 2, Shuiyuan Rd.","61","1"
"1026","秀山國小","62","50","中和區","20171124175916","24.996151","121.521988","更生街/自立路(西南側)","Zhonghe Dist.","Xiushan Elementary School","Gengsheng St./Zili Rd.","12","1"
"1027","捷運永安市場站","72","66","中和區","20171124175937","25.001013","121.511588","中安街/中和路378巷(東南側)","Zhonghe Dist.","MRT Yongan Market Sta.","Zhong’an St./Ln. 378, Zhonghe Rd.","4","1"
"1028","福和國中","66","26","永和區","20171124175943","25.005952","121.520930","永貞路/永亨路(東南側)","Yonghe Dist.","Fuhe Junior High School","Yongzhen Rd./Yongheng Rd.","39","1"
"1029","仁愛公園","60","12","永和區","20171124175826","25.009838","121.505825","仁愛路/保生路","Yonghe Dist.","Renai Park","Ren’ai Rd./Baosheng Rd.","47","1"
"1030","中和公園","46","18","中和區","20171124175915","25.000726","121.514350","安樂路/得和路(西南側)","Zhonghe Dist.","Zhonghe Park","Anle Rd./Dehe Rd.","28","1"
"1031","金龍公園","52","44","汐止區","20171124175917","25.069473","121.631525","湖前街31巷2弄/湖前街31巷","Xizhi Dist.","Jinlong Park","Aly. 2, Ln. 31, Huqian St./Ln. 31, Huqian St.","8","1"
"1032","重陽公園","50","40","蘆洲區","20171124175927","25.085688","121.483618","集賢路221巷重陽活動中心","Luzhou Dist.","Chong Yang Park","Ln. 221, Jixian Rd.","10","1"
"1033","捷運三民高中站(1號出口)","78","2","蘆洲區","20171124175919","25.085815","121.472722","三民路105號","Luzhou Dist.","MRT Sanmin Senior High School Sta. (Exit 1)","No.105, Sanmin Rd.","76","1"
"1034","中原公園","58","21","蘆洲區","20171124175925","25.083316","121.463894","長興路22號前通道","Luzhou Dist.","Zhung Yuan Park","No.22, Changxing Rd.","37","1"
"1035","丹鳳派出所","38","18","新莊區","20171124175937","25.027694","121.414662","雙鳳路77巷丹鳳派出所前","Xinzhuang Dist.","Danfeng Police Substation","Ln. 77, Shuangfeng Rd.(Danfeng Police Station)","20","1"
"1036","小金門友誼公園","60","5","新店區","20171124175940","24.977227","121.538140","民族路/建興街","Xindian Dist.","Little Kinmen Park","Minzu Rd./Jianxing St.","54","1"
"1037","中興寶橋路口","52","16","新店區","20171124175917","24.976180","121.546870","中興路三段1號旁","Xindian Dist.","Zhongxing & Baoqiao Intersection　","No.1, Sec. 3, Zhongxing Rd.","36","1"
"1038","新莊棒球場","74","33","新莊區","20171124175924","25.041603","121.446053","和興街75號/復興路一段23號","Xinzhuang Dist.","Xinzhuang Baseball Court","No.75, Hexing St./No.23, Sec. 1, Fuxing Rd.","40","1"
"1039","頂溪國小","44","23","永和區","20171124175930","25.015811","121.511261","文化路133號(西側)","Yonghe Dist.","Tinghsi Elementary School","No.133, Wenhua Rd.","21","1"
"1040","永和國小","38","16","永和區","20171124175927","25.002272","121.517442","中正路390號至426號對面","Yonghe Dist.","Yonghe Elementary School","No.390 to No.426, Zhongzheng Rd.(opposite)","22","1"
"1041","秀朗國小","46","41","永和區","20171124175927","24.999392","121.522843","民生路15號至23號對面","Yonghe Dist.","Xiu Lang Elementary School","No.15 to No.23, Minsheng Rd.(opposite)","4","1"
"1042","台北慈濟醫院","40","3","新店區","20171124175930","24.985872","121.536887","建國路289號旁空地","Xindian Dist.","Taipei Tzu Chi Hospital","No.289, Jianguo Rd.","37","1"
"1043","捷運頂溪站(1號出口)","36","6","永和區","20171124175932","25.012176","121.515271","中興街1號對面","Yonghe Dist.","MRT Dingxi Sta. (Exit 1)","No.1, Zhongxing St.(opposite)","30","1"
"1044","保安永平路口","42","15","永和區","20171124175916","25.012691","121.506471","保安路248號至250號對面","Yonghe Dist.","Bao'an & Yongping Intersection","No.248 to No.250, Bao’an Rd.","27","1"
"1045","崇光女中","36","5","新店區","20171124175924","24.972127","121.539554","三民路14號至三民路18號","Xindian Dist.","Our Lady of Providence Girls' High School","No.14 to No.18, Sanmin Rd.","30","1"
"1046","新店高中","42","3","新店區","20171124175944","24.974181","121.534209","三民路159巷/三民路108號(對面人行道)","Xindian Dist.","Hsin Tien Senior High School","Ln. 159, Sanmin Rd./ No.108, Sanmin Rd.","38","1"
"1047","新莊文化藝術中心","48","13","新莊區","20171124175925","25.047150","121.444453","中平路133號前","Xinzhuang Dist.","Xinzhuang Culture and Arts Center","No.133, Zhongping Rd.","35","1"
"1048","中華中原路口","58","24","新莊區","20171124175924","25.054232","121.451752","中原路/中華路二段","Xinzhuang Dist.","Zhonghua & Zhongyuan Intersection","Zhongyuan Rd./Sec. 2, Zhonghua Rd","34","1"
"1049","新北高中","60","1","三重區","20171124175924","25.087225","121.489525","三信路1號旁","Sanchong Dist.","New Taipei Senior High School","No.1, Sanxin Rd.","56","1"
"1050","福壽公園","36","20","新莊區","20171124175934","25.051829","121.457746","福壽街130號至140號(對面福壽公園)","Xinzhuang Dist.","Fushou Park","No.130 to No.140, Fushou St.","16","1"
"1051","保長公園","28","17","汐止區","20171124175927","25.079523","121.674342","保長路/保長路45巷","Xizhi Dist.","Baochang Park","Baochang Rd./Ln. 45, Baochang Rd.","11","1"
"1052","新店公有中央市場","36","1","新店區","20171124175930","24.975308","121.527287","中央四街64號對面","Xindian Dist.","Zhongyang Market","No.64, Zhongyang 4th St. (opposite)","34","1"
"1053","永平高中","34","2","永和區","20171124175942","25.009790","121.509092","永平路/永平路203巷口(靠學校圍牆路側)","Yonghe Dist.","Yong-Ping High School","Yongping Rd./Ln. 203, Yongping Rd.","32","1"
"1054","惠國市場","36","2","新店區","20171124175944","24.970415","121.543384","中正路75巷至中正路95巷間","Xindian Dist.","Huiguo Market","Ln. 75 to Ln. 95 , Zhongzheng Rd.","33","1"
"1055","陽光橋","40","13","新店區","20171124175939","24.978494","121.524176","溪園路/中山路","Xindian Dist.","Sunshine Bridge","Xiyuan Rd./Zhongshan Rd.","26","1"
"1056","中興寶慶街口","50","21","新店區","20171124175921","24.986942","121.541950","中興路三段/寶慶街","Xindian Dist.","Zhongxing & Baoqing Intersection","Sec. 3, Zhongxing Rd./Baoqing St.","27","1"
"1057","東方科學園區","52","20","汐止區","20171124175927","25.061262","121.649512","新台五路一段90-116號","Xizhi Dist.","Oriental Science Park","No.90 to No.116, Sec. 1, Xintai 5th Rd.","30","1"
"1058","連興龍安路口","70","33","汐止區","20171124175924","25.062989","121.654430","連興路/龍安路28巷","Xizhi Dist.","Lianxing & Long’an Intersection","Lianxing St./Ln. 28, Long’an Rd.","33","1"
"1059","青山國民中小學","50","20","汐止區","20171124175936","25.061034","121.655586","莊敬街33號","Xizhi Dist.","Qingshan Elementary and Junior High School","No.33, Zhuangjing St.","28","1"
"1060","汐止區綜合運動場","44","21","汐止區","20171124175924","25.066238","121.659067","汐科路/秀峰路","Xizhi Dist.","Xizhi Sports Field","Xike Rd./Xiufeng Rd.","23","1"
"1061","汐止公園","52","9","汐止區","20171124175932","25.067682","121.659763","大同路二段451號","Xizhi Dist.","Xizhi Park","No.451, Sec. 2, Datong Rd.","42","1"
"1062","保順環河西路口","58","45","永和區","20171124175936","25.010786","121.503376","保順環河西路口","Yonghe Dist.","Baoshun & Huanhe W. Intersection","Baoshun & Huanhe W. Intersection","9","1"
"1063","台灣科學園區","40","22","汐止區","20171124175939","25.057900","121.634899","大同路一段237號前空地","Xizhi Dist.","Taiwan Science Park","No.237, Sec. 1, Datong Rd.","18","1"
"1064","中正國小","32","9","新店區","20171124175929","24.971496","121.536296","三民路36號-42-1號前機車格","Xindian Dist.","Chung Cheng Elementary School","No. 36 to No.42-1, Sanmin Rd.","23","1"
"1065","開元市民活動中心","42","22","三重區","20171124175927","25.066074","121.503557","開元街58號/長元街65巷16弄對面","Sanchong Dist.","Kaiyuan Civic Activity Center","No.58, Kaiyuan St./Aly. 16, Ln. 65, Changyuan St. (opposite)","17","1"
"1066","雍和科學園區","44","1","汐止區","20171124175939","25.058078","121.626018","南陽街185號","Xizhi Dist.","Taipei Park","No.185, Nanyang St.","43","1"
"1067","二重國小","46","7","三重區","20171124175921","25.065976","121.477656","頂崁街164號至188號(對面二重國小)","Sanchong Dist.","Er Chong Elementary School","No.164 to No.188, Dingkan St. (opposite)","38","1"
"1068","二重國中","70","5","三重區","20171124175939","25.065957","121.480465","忠孝路三段75巷1號至忠孝路三段75巷11號(對面人行道)","Sanchong Dist.","Er Chung Junior High School","No.1, Ln. 75, Sec. 3, Zhongxiao Rd. to No.11, Ln. 75, Sec. 3, Zhongxiao Rd. (opposite)","65","1"
"1069","三重行政中心","44","13","三重區","20171124175944","25.060566","121.488229","新北大道一段15巷至新北大道一段5巷2弄(區公所人行道)","Sanchong Dist.","Sanchong District office","Ln. 12, Zhongshan Rd.,/Aly. 2, Ln. 5, Sec. 1, New Taipei Blvd.","30","1"
"1070","新北市立圖書館三重分館","50","19","三重區","20171124175925","25.066099","121.495529","自強路一段162號至自強路一段二弄4號(對面停車場)","Sanchong Dist.","New Taipei City Library Sanchong Branch","No.162, Sec. 1, Ziqiang Rd. to No.4, Aly. 2, Sec. 1, Ziqiang Rd. (opposite)","31","1"
"1071","三張公園","40","11","三重區","20171124175940","25.070507","121.490935","大智街127號至大智路137號(對面三張公園)","Sanchong Dist.","Sanzhang Park","No.127, Dazhi St. to No.137, Dazhi St. (opposite)","29","1"
"1072","捷運丹鳳站(1號出口)","46","9","新莊區","20171124175924","25.029032","121.422799","中正路/民安路","Xinzhuang Dist.","MRT Danfeng Sta. (Exit 1)","Zhongzheng Rd./Min’an Rd","31","1"
"1073","永福橋","50","24","永和區","20171124175940","25.010032","121.524184","豫溪街217巷27號對面人行道","Yonghe Dist.","Yongfu Bridge","No.27, Ln. 217, Yuxi St. (opposite)","24","1"
"1074","中港國小","50","29","新莊區","20171124175939","25.045947","121.447746","中和街62號對面","Xinzhuang Dist.","Zhonggang Elementary School","No.62, Zhonghe St. (opposite)","21","1"
"1075","六合公園","40","13","三重區","20171124175915","25.069499","121.487588","自強路二段74巷27號對面","Sanchong Dist.","Liuhe Park","No.27, Ln. 74, Sec. 2, Ziqiang Rd. (opposite)","26","1"
"1076","正義公園","52","28","三重區","20171124175917","25.068551","121.497818","文化北路101號至119號對面","Sanchong Dist.","Zhengyi Park","No.101 to No. 119, Wenhua N. Rd. (opposite)","24","1"
"1077","捷運徐匯中學站(1號出口)","56","34","蘆洲區","20171124175927","25.080468","121.479852","中山一路3號(捷運徐匯中學站1號出口旁)","Luzhou Dist.","MRT St.Ignatius High School Sta. (Exit 1)","No.3, Zhongshan 1st Rd.","22","1"
"1078","黃城公園","38","14","新莊區","20171124175936","25.052382","121.448239","中信街74號旁","Xinzhuang Dist.","Huangcheng Park","No.74, Zhongxin St.","24","1"
"1079","捷運菜寮站(3號出口)","30","3","三重區","20171124175938","25.060471","121.492198","重新路三段67號旁","Sanchong Dist.","MRT Cailiao Sta. (Exit 3)","No.67, Sec. 3, Chongxin Rd.","27","1"
"1080","捷運三和國中站(1號出口)","48","17","三重區","20171124175936","25.075881","121.487795","三和路四段95號至97號對面(捷運三和國中站1號出口)","Sanchong Dist.","MRT Sanhe Junior High School Sta.","No.95 to N0. 97, Sec. 4, Sanhe Rd. (opposite)","31","1"
"1081","中和國民運動中心","50","31","中和區","20171124175936","24.993477","121.487692","和城路一段/中正二橋","Zhonghe Dist.","Zhonghe Civil Sports Center","Sec. 1, Hecheng Rd./  Zhongzheng Second Bridge","19","1"
"1082","四維公園","40","6","新莊區","20171124175936","25.021308","121.422185","四維路181號對面(四維活動中心出口前)","Xinzhuang Dist.","Siwei Park","No.181, Siwei Rd. (opposite)","34","1"
"1083","蘆洲國民運動中心","42","9","蘆洲區","20171124175936","25.091945","121.461613","長興路237巷/長興路","Luzhou Dist.","Luzhou Civil Sports Center","Ln. 237, Changxing Rd./Changxing Rd.","32","1"
"1084","和平公園","36","10","三重區","20171124175929","25.070884","121.485712","忠孝路二段/忠孝路二段32巷","Sanchong Dist.","Helping Park","Zhongxiao Rd./Ln. 32, Sec. 2, Zhongxiao Rd.","26","1"
"1085","三重綜合體育館","52","27","三重區","20171124175933","25.061446","121.491926","新北大道一段1號前人行道","Sanchong Dist.","Sanchong Sports Center","No.1, Sec. 1, New Taipei Blvd.","25","1"
"1086","信義公園","36","21","三重區","20171124175915","25.064804","121.498749","信義西街18號對面人行道","Sanchong Dist.","Xinyi Park","No.18, Xinyi W. St. (opposite)","15","1"
"1087","捷運小碧潭站(1號出口)","44","18","新店區","20171124175915","24.97152","121.53029","捷運小碧潭站1號出口旁西側人行道(環河路側)","Xindian Dist.","MRT Xiaobitan Sta. (Exit.1)","MRT Xiaobitan Sta. (Exit.1) (Huanhe Rd.)","26","1"
"1088","秀得里(成功路二段)","28","14","永和區","20171124175941","25.000705","121.526729","成功路二段28號至34號","Yonghe Dist.","Xiu de Village (Chenggong Rd. Sec. 2)","No.28 to No.34, Sec. 2, Chenggong Rd.","14","1"
"1089","永平公園","44","32","蘆洲區","20171124175947","25.089987","121.459424","永樂街38巷42弄公園人行道(永平市場南側)","Luzhou Dist.","Yongping Park","Aly. 42, Ln. 38, Yongle St.","12","1"
"1090","永康公園","30","13","蘆洲區","20171124175920","25.084764","121.458733","長安街220巷6號對面人行道","Luzhou Dist.","Yongkang Park","No.6, Ln. 220, Chang’an St. (opposite)","17","1"
"1091","頭前運動公園","50","7","新莊區","20171124175940","25.052180","121.462124","頭成街165號對面人行道","Xinzhuang Dist.","Touqian Sports Park","No.165, Toucheng St. (opposite)","42","1"
"1092","頭前國中","42","1","新莊區","20171124175939","25.054464","121.459318","中原路3至9號對面人行道","Xinzhuang Dist.","Touqian Junior High School","No.3 to No.9 , Zhongyuan Rd. (opposite)","41","1"
"1093","建國民權路口","46","33","新店區","20171124175924","24.983184","121.537462","建國路259號前人行道","Xindian Dist.","Jianguo Minquan Intersection","No.259, Jianguo Rd.","12","1"
"1094","聯邦公園","48","0","三重區","20171124175924","25.064447","121.483710","三民街/中華路","Sanchong Dist.","Lian Bang Park","Sanmin St./Zhonghua Rd.","48","1"
"1095","捷運蘆洲站","52","45","蘆洲區","20171124175932","25.091637","121.464031","三民路/中正路口","Luzhou Dist.","MRT Luzhou Sta.","Sanmin Rd./Zhongzheng Rd.","7","1"
"1096","集成成功路口","32","25","三重區","20171124175924","25.051542","121.488208","集成路2號至8號前人行道","Sanchong Dist.","Ji Cheng Cheng Gong Intersection","No.2 to No.8, Jicheng Rd.","7","1"
"1097","板橋國民運動中心","44","10","板橋區","20171124175937","25.022235","121.458152","英士路/智樂路","Banqiao Dist.","Banqiao Civil Sports Center","Yingshi Rd./Jhihle Rd.","34","1"
"1098","永安公園","38","12","板橋區","20171124175936","25.024478","121.477572","雙十路一段25號前人行道","Banqiao Dist.","Yongan Park","No.25, Sec. 1, Shuangshi Rd.","26","1"
"1099","捷運江子翠站(3號出口)","44","14","板橋區","20171124175921","25.029729","121.472359","文化路二段/雙十路二段","Banqiao Dist.","MRT Jiangzicui Sta.(Exit 3)","Sec. 2, Wenhua Rd./Sec. 2, Shuangshi Rd.","29","1"
"1100","音樂公園","48","24","板橋區","20171124175940","25.028631","121.480460","大同街97號對面公園人行道","Banqiao Dist.","Yinyue Park","No.97, Datong St.","21","1"
"1101","捷運七張站(1號出口)","42","34","新店區","20171124175931","24.974996","121.542767","北新路二段/北新路二段121巷","Xindian Dist.","MRT Qizhang Sta. (Exit 1)","Sec. 2, Beixin Rd./Ln. 121, Sec. 2, Beixin Rd.","6","1"
"1102","北新國小","44","2","新店區","20171124175921","24.974233","121.544428","寶橋路8號前人行道","Xindian Dist.","BeiXin Elementary School","No.8, Baoqiao Rd.","40","1"
"1103","捷運新埔站(2號出口)","40","29","板橋區","20171124175917","25.022095","121.467598","文化路一段318號旁廣場","Banqiao Dist.","MRT Xinpu Sta.(Exit.2)","No.318, Sec. 1, Wenhua Rd.","10","1"
"1104","聯合醫院板橋院區","34","4","板橋區","20171124175924","25.023832","121.457773","龍泉街131號旁人行道(立體停車場前)","Banqiao Dist.","New Taipei City Hospital Banqiao Branch","No.131, Longquan St.","30","1"
"1105","捷運板橋站(3號出口)","68","37","板橋區","20171124175941","25.014797","121.462051","文化路一段117號對面人行道","Banqiao Dist.","MRT Banqiao Sta.(Exit.3)","No.117, Sec. 1, Wenhua Rd. (opposite)","29","1"
"1106","民生公園","42","21","板橋區","20171124175917","25.013087","121.475894","民生路一段/民生路一段30巷","Banqiao Dist.","Minsheng Park","Sec. 1, Minsheng Rd./Ln. 30, Sec. 1, Minsheng Rd.","16","1"
"1107","新北市政府(新府路)","40","4","板橋區","20171124175931","25.012374","121.464224","新府路1號對面人行道","Banqiao Dist.","New Taipei City Hal ( Zinfu Rd.)","No.1, Xinfu Rd. (opposite)","35","1"
"1108","捷運板橋站(1號出口)","90","17","板橋區","20171124175916","25.013174","121.461900","縣民大道二段3號(秀泰影城門口)","Banqiao Dist.","MRT Banqiao Sta.(Exit.1)","No.3, Sec. 2, Xianmin Blvd.","72","1"
"1109","板橋地政事務所","52","34","板橋區","20171124175917","25.007983","121.463387","實踐路5號對面","Banqiao Dist.","Banqiao Land Office","No.5, Shijian Rd. (opposite)","17","1"
"1110","板橋戶政事務所","44","21","板橋區","20171124175932","25.012839","121.456308","中正路6號前人行道","Banqiao Dist.","Banqiao District Household Registration Office","No.6, Zhongzheng Rd.","23","1"
"1111","板橋和平公園","40","29","板橋區","20171124175938","24.997679","121.464326","重慶路355號前廣場","Banqiao Dist.","Banqiao Heping Park","No.355, Chongqing Rd.","11","1"
"1112","碧華公園","28","0","三重區","20171002074541","25.083741","121.487491","溪尾街303號(對面公園)","Sanchong Dist.","Bihua Park","No.303, Xiwei St. (opposite)","0","0"
"1113","五福里(五華街)","52","12","三重區","20171124175937","25.081725","121.493902","五華街64號對面人行道(碧華國中旁)","Sanchong Dist.","Wufu Village (Wuhua St.)","No.64, Wuhua St. (opposite)","40","1"
"1114","同安公園","30","13","三重區","20171124175916","25.057320","121.499067","正義南路/同安東街(正義南路側公園廣場)","Sanchong Dist.","Tong An Park","Zhengyi S. Rd./Tong’an E. St.","16","1"
"1115","中華里(中華路二段)","38","14","新莊區","20171124175924","25.045951","121.453766","中華路2段31號對面","Xinzhuang Dist.","Zhonghua Village (Zhonghua Rd. Sec. 2 )","No.31, Sec. 2, Zhonghua Rd. (opposite)","24","1"
"1116","中華自治街口","36","16","新莊區","20171124175932","25.047855","121.453202","中華路2段/自治街口人行道(中港大排東側)","Xinzhuang Dist.","Zhonghua & Zizhi Intersection","Sec. 2, Zhonghua Rd/Zizhi St.","18","1"
"1117","捷運府中站(3號出口)","42","24","板橋區","20171124175925","25.008999","121.458776","府中路31號至53號對面","Banqiao Dist.","MRT Fuzhong Sta.(Exit.3)","No.31 to No.53, Fuzhong Rd. (opposite)","17","1"
"1118","捷運亞東醫院站(2號出口)","52","26","板橋區","20171124175925","24.997830","121.452315","南雅南路二段122-23號前人行道","Banqiao Dist.","MRT Far Eastern Hospital Sta.(Exit.2)","No.122-23, Sec. 2, Nanya S. Rd.","26","1"
"1119","新泰公園","42","20","新莊區","20171124175936","25.037200","121.444946","建中街116巷/建中街116巷3弄","Xinzhuang Dist.","Xintai Park","Ln. 116, Jianzhong St./Aly. 3, Ln. 116, Jianzhong St.","22","1"
"1120","上林里(環河東路一段)","38","16","永和區","20171124175927","25.014999","121.520951","環河東路一段/竹林路75巷25弄","Yonghe Dist.","Shanglin Village (Huanhe E. Rd. Sec. 1 )","Sec. 1, Huanhe E. Rd./Aly. 25, Ln. 75, Zhulin Rd.","20","1"
"1121","進安公園","34","15","三重區","20171124175930","25.086031","121.493774","仁義街258號至290號","Sanchong Dist.","Jinan Park","No.258 to No.290, Renyi St.","18","1"
"1122","自強溪尾街口","40","34","三重區","20171124175943","25.078220","121.490157","自強路4段/溪尾街","Sanchong Dist.","Ziqiang & Xiwei Intersection","Sec. 4, Ziqiang Rd./Xiwei St.","5","1"
"1123","捷運三重國小站","54","18","三重區","20171124175937","25.070418","121.497126","仁愛街/三和路3段11巷","Sanchong Dist.","MRT Sanchong Elementary School Sta.","Ren’ai St./Ln. 11, Sec. 3, Sanhe Rd.","36","1"
"1124","五堵火車站","50","25","汐止區","20171124175924","25.077493","121.666869","鄉長路一段人行道側","Xizhi Dist.","Wudu Railway Station","Sec. 1, Xiangzhang Rd.","23","1"
"1125","捷運南勢角站1號出口","70","45","中和區","20171124175931","24.990804","121.506978","捷運路131號至141號對面","Zhonghe Dist.","MRT Nanshijiao Sta.(Exit 1)","No.131 to No.141, Jieyun Rd.","25","1"
"1126","柳堤公園","42","19","蘆洲區","20171124175937","25.087989","121.462192","長樂路125號對面公園通道","Luzhou Dist.","Liuti Park","No.125, Changle Rd. (opposite)","22","1"
"1127","新北市立圖書館總館","36","24","板橋區","20171124175936","25.001583","121.455524","貴興路119巷","Banqiao Dist.","New Taipei City Library","Ln. 119, Guixing Rd.","12","1"
"1128","永福國小","36","17","三重區","20171124175943","25.077714","121.480315","永福街/下竹圍街","Sanchong Dist.","Yong Fu Elementary School","Yongfu St./Xiazhuwei St.","19","1"
"1129","明志國小","46","24","泰山區","20171124175930","25.045729","121.426269","明志路二段324號對面人行道","Taishan Dist.","Mingzhi Elementary School","No.324, Sec. 2, Mingzhi Rd. (opposite)","19","1"
"1130","蘆洲三民公園","34","20","蘆洲區","20171124175939","25.094306","121.460134","三民路615號對面人行道","Luzhou Dist.","Luchou Sanmin Park","No.615, Sanmin Rd. (opposite)","13","1"
"1131","臺北醫院","36","18","新莊區","20171124175937","25.043536","121.459772","思源路131號至137號前人行道","Xinzhuang Dist.","Taipei Hospital","No.131 to No.137, Siyuan Rd.","17","1"
"1132","重新重安街口","36","16","三重區","20171124175932","25.058443","121.489751","重新路三段/重安街","Sanchong Dist.","Chongxi & Chongan Intersection","Sec. 3, Chongxin Rd./Chong’an St.","20","1"
"1133","柴埕市民活動中心","38","4","新店區","20171124175917","24.966775","121.516479","安民街/安民街65巷","Xindian Dist.","Chaicheng Civic Activity Center","Anmin St./Ln. 65, Anmin St.","34","1"
"1134","思賢國小","52","15","新莊區","20171124175932","25.046446","121.457716","福樂街66號對面","Xinzhuang Dist.","Si Xian Elementary School","No.66, Fule St. (opposite)","37","1"
"1135","莊敬公園","38","14","板橋區","20171124175941","25.020983","121.470821","萬板路/民生路二段","Banqiao Dist.","Zhuangjing Park","Wanban Rd./Sec. 2, Minsheng Rd.","23","1"
"1136","豐年國小","34","6","新莊區","20171124175928","25.031278","121.443230","瓊泰路161號對面人行道","Xinzhuang Dist.","Feng-Nian Elementary School","No.161, Qiongtai Rd. (opposite)","27","1"
"1137","新海長江路口","36","13","板橋區","20171124175924","25.02853","121.457367","長江路一段/新海路","Banqiao Dist.","Xinhai & Changjiang Intersection","Sec. 1, Changjiang Rd./Xinhai Rd.","23","1"
"1138","捷運新埔站(4號出口)","50","13","板橋區","20171124175938","25.023491","121.468559","民生路二段250號前人行道","Banqiao Dist.","MRT Xinpu Sta.(Exit.4)","No.250, Sec. 2, Minsheng Rd.","34","1"
"1139","板橋仁愛公園","34","10","板橋區","20171124175936","24.996430","121.459696","國慶路49巷23號對面","Banqiao Dist.","Banqiao Renai Park","Aly. 23, Ln. 49, Guoqing Rd. (opposite)","23","1"
"1140","泰山國小","32","2","泰山區","20171124175919","25.062345","121.431475","泰林路2段257號旁人行道","Taishan Dist.","Taishan Elementary School","No.257, Sec. 2, Tailin Rd.","30","1"
"1141","縣民民族路口","36","13","板橋區","20171124175919","25.010012","121.461097","縣民大道一段/民族路","Banqiao Dist.","Xianmin Blvd & Minzu Intersection","Sec. 1, Xianmin Blvd./Minzu Rd.","23","1"
"1142","光華東帝士","40","8","新莊區","20171124175943","25.010795","121.427836","民安西路370號至376號前","Xinzhuang Dist.","Guanghua dongdishi","No.376 to No.376, Min’an W. Rd.","31","1"
"1143","廣福公園","38","28","板橋區","20171124175919","24.991643","121.462872","廣權路/廣和街","Banqiao Dist.","Guangfu Park","Guangquan Rd./Guanghe St.","10","1"
"1144","板橋四維公園","54","31","板橋區","20171124175919","25.025464","121.462633","陽明街251號至259號對面人行道","Banqiao Dist.","Banqiao Siwei Park","No.251 to No.259, Yangming St. (opposite)","23","1"
"1145","捷運頂埔站(2號出口)","60","18","土城區","20171124175938","24.959276","121.419008","中央路四段74號至76號對面人行道","Tucheng Dist.","MRT Dingpu Sta.(Exit.2)","No.74 to No.76, Sec. 4, Zhongyang Rd. (opposite)","42","1"
"1146","龍門龍濱路口","36","19","三重區","20171124175930","25.073475","121.500977","龍濱路192號對面","Sanchong Dist.","Longmen & Longbin Intersection","No.192, Longbin Rd. (opposite)","16","1"
"1147","青潭國小","40","23","新店區","20171124175942","24.953101","121.551813","北宜路2段149號對面","Xindian Dist.","Qing-Tan Elementary School","No.149, Sec. 2, Beiyi Rd. (opposite)","15","1"
"1148","金城忠義路口","34","2","土城區","20171124175943","24.969399","121.440808","金城路一段/忠義路","Tucheng Dist.","Jincheng & Zhongyi Intersection","Sec. 1, Jincheng Rd./Zhongyi Rd.","30","1"
"1149","華德公園","38","7","板橋區","20171124175924","24.991683","121.453320","四川路二段245巷60號對面","Banqiao Dist.","Huade Park","No.60, Ln. 245, Sec. 2, Sichuan Rd.","31","1"
"1150","橋東里(忠孝東路)","40","1","汐止區","20171124175919","25.073682","121.666257","忠孝東路484號至488號前","Xizhi Dist.","Qiaodong Village (Zhongxiao E. Rd.)","No.484 to No.488, Zhongxiao E. Rd.","38","1"
"1151","中山國中","38","6","板橋區","20171124175924","25.018559","121.467509","文化路一段188巷56號","Banqiao Dist.","Zhong Shan Junior High School","No.56, Ln. 188, Sec. 1, Wenhua Rd.","32","1"
"1152","捷運土城站(2號出口)","52","38","土城區","20171124175930","24.972631","121.443563","金城路1段/和平路","Tucheng Dist.","MRT Tucheng Sta.(Exit 2)","Sec. 1, Jincheng Rd./Heping Rd.","12","1"
"1153","四川遠東路口","48","2","板橋區","20171124175930","24.998003","121.457355","遠東路5號前人行道(四川路側)","Banqiao Dist.","Sichuan & Yuandong Intersection","No.5, Yuandong Rd.","46","1"
"1154","員林社區公園","42","25","土城區","20171124175941","24.977883","121.443237","員林街12巷對面","Tucheng Dist.","Yuanlin Community Park","Ln. 12, Yuanlin St. (opposite)","16","1"
"1155","中正橋","30","17","永和區","20171124175936","25.017757","121.516809","環河東路一段/光復街","Yonghe Dist.","Zhongzheng Bridge","Sec. 1, Huanhe E. Rd./Guangfu St.","11","1"
"1156","北港國小","44","24","汐止區","20171124175918","25.089027","121.645946","汐萬路二段279號","Xizhi Dist.","Beigang Elementary School","No.279, Sec. 2, Xiwan Rd.","19","1"
"1157","捷運新店站","54","26","新店區","20171124175931","24.958605","121.538659","中興路一段34號前(高架橋下停車場)","Xindian Dist.","MRT Xindian Sta.","No.34, Sec. 1, Zhongxing Rd.","28","1"
"1158","錦和運動公園","36","1","中和區","20171124175931","24.992086","121.490671","錦和路163號","Zhonghe Dist.","Jinhe Sports Park","No.163, Jinhe Rd.","34","1"
"1159","新樹公園","32","18","新莊區","20171124175926","25.003383","121.433154","新樹路627號對面","Xinzhuang Dist.","Xinshu Park","No.627, Xinshu Rd. (opposite)","14","1"
"1160","中和環球購物中心","40","8","中和區","20171124175943","25.006367","121.474223","中山路三段130號","Zhonghe Dist.","Zhonghe Global Mall","No.130, Sec. 3, Zhongshan Rd.","31","1"
"1161","楓樹腳公園","36","10","泰山區","20171124175937","25.061938","121.434939","楓江路26巷26號前人行道","Taishan Dist.","Fengshujiao Park","No.26, Ln. 26, Fengjiang Rd.","26","1"
"1162","厚德公園","36","1","三重區","20171124175926","25.071988","121.491200","忠孝路一段37號","Sanchong Dist.","Houde Park","No.37, Sec. 1, Zhongxiao Rd.","35","1"
"1163","板橋信義公園","40","4","板橋區","20171124175920","24.996183","121.456476","四川路二段6號對面","Banqiao Dist.","Banqiao Xinyi Park","No.6, Sec. 2, Sichuan Rd. (opposite)","36","1"
"1164","國光里(國光路)","34","25","板橋區","20171124175936","25.017755","121.458308","國光路76號旁","Banqiao Dist.","Guoguang Village (Guoguang Rd.)","No.76, Guoguang Rd.","9","1"
"1165","民生長江路口","36","9","板橋區","20171124175938","25.030904","121.463596","民生路三段/長江路一段(64高架橋下方)","Banqiao Dist.","Minsheng & Changjiang Intersection","Sec. 3, Minsheng Rd./Sec. 1, Changjiang Rd.","27","1"
"1166","華福市民活動中心","36","21","中和區","20171124175924","24.995482","121.467525","民德路296號對面停車格位","Zhonghe Dist.","Huafu Civil Activity Center","No.296, Minde Rd. (opposite)","15","1"
"1167","浮洲合宜住宅(合安一路)","34","10","板橋區","20171124175918","24.999329","121.446343","合安一路/大觀路二段153巷","Banqiao Dist.","Fujhou Appropriate House ( He-an 1st. Road )","1st Rd./Ln. 153, Sec. 2, Daguan Rd.","24","1"
"1168","建福公園","38","24","新莊區","20171124175925","25.027694","121.426685","建福路/建福路49巷","Xinzhuang Dist.","Jianfu Park","Jianfu Rd./Ln. 49, Jianfu Rd.","14","1"
"1169","水河里活動中心","52","18","蘆洲區","20171124175924","25.093949","121.473913","民族路408巷/復興路323巷","Luzhou Dist.","Shuei He Village Activity Center","Ln. 408, Minzu Rd./Ln. 323, Fuxing Rd.","32","1"
"1170","金城延和路口","38","11","土城區","20171124175917","24.989155","121.470454","金城路三段/延和路(土城台電變電站)","Tucheng Dist.","Jincheng & Yanhe Intersection","Sec. 3, Jincheng Rd./Yanhe Rd.","27","1"
"1171","國光公園","36","12","板橋區","20171124175938","25.019828","121.453852","中正路325巷/中正路341巷","Banqiao Dist.","Guoguang Park","Ln. 325, Zhongzheng Rd./Ln. 341, Zhongzheng Rd.","24","1"
"1172","樹林火車站(後站)","52","4","樹林區","20171124175916","24.992553","121.424652","後站街6巷11號對面","Shulin Dist.","Shulin Railway Rear Station","No.11, Ln. 6, Houzhan St. (opposite)","47","1"
"1173","文林國小","32","9","樹林區","20171124175925","24.997856","121.426360","千歲街59號","Shulin Dist.","Wenlin Elementary School","No.59, Qiansui St.","23","1"
"1174","土城綜合體育場","44","8","土城區","20171124175921","24.983671","121.454211","裕民路195巷旁","Tucheng Dist.","Tucheng Sports Field","Ln. 195, Yumin Rd.","35","1"
"1175","板橋福德公園","32","15","板橋區","20171124175929","25.011498","121.467415","新站路1號對面","Banqiao Dist.","Banqiao Fude Park","No.1, Xinzhan Rd. (opposite)","17","1"
"1176","光華公園","32","21","樹林區","20171124175924","25.005412","121.413157","保安街2段259號對面","Shulin Dist.","Guanghua Park","No.259, Sec. 2, Bao’an St. (opposite)","10","1"
"1177","樹林大安活動中心","36","7","樹林區","20171124175917","24.986391","121.414770","備前街/復興路372巷口","Shulin Dist.","Shulin Da'an Activity Center","Beiqian St./Ln. 372, Fuxing Rd.","29","1"
"1178","三民中山一路口","36","17","蘆洲區","20171124175915","25.082229","121.476004","三民路8號前","Luzhou Dist.","Sanmin & Zhongshan 1st Rd. Intersection","No.8, Sanmin Rd.","19","1"
"1179","義學國小","34","1","泰山區","20171124175943","25.051762","121.431669","民生路33號對面人行道","Taishan Dist.","Yixue Elementary School","No.33, Minsheng Rd. (opposite)","33","1"
"1180","自然公園","34","6","三重區","20171124175940","25.089840","121.487987","如意街/集賢路口","Sanchong Dist.","Natural Park","Ruyi St./Jixian Rd.","28","1"
"1181","板林溪北路口","46","30","板橋區","20171124175918","24.990555","121.426350","板林路/溪北路","Banqiao Dist.","Banlin & Xibei Intersection","Banlin Rd./Xibei Rd.","15","1"
"1182","新北市藝文中心","40","27","板橋區","20171124175936","25.026542","121.472279","莊敬路/文化路2段182巷","Banqiao Dist.","New Taipei City Art Center","Zhuangjing Rd./Ln. 182, Sec. 2, Wenhua Rd.","12","1"
"1183","大安中央路口","32","0","土城區","20171124175924","24.965619","121.432610","大安路/中央路三段","Tucheng Dist.","Da'an & Zhongyang Intersection","Da’an Rd./Sec. 3, Zhongyang Rd.","32","1"
"1184","中和地政事務所","28","17","中和區","20171124175926","24.990393","121.502397","復興路280號","Zhonghe Dist.","Zhonghe Land Office","No.280, Fuxing Rd.","11","1"
"1185","華夏科技大學","42","6","中和區","20171124175928","24.980672","121.507652","工專路111號","Zhonghe Dist.","Hwa Hsia University of Technology","No.111, Gongzhuan Rd.","36","1"
"1186","同興公園","34","2","泰山區","20171124175946","25.055188","121.432128","仁義路15號對面","Taishan Dist.","Tongxing Park","No.15, Renyi Rd. (opposite)","32","1"
"1187","新五泰國民運動中心","30","1","泰山區","20171124175930","25.055865","121.434262","全興路214號對面","Taishan Dist.","Xinwutai  Civil Sports Center","No.214, Quanxing Rd. (opposite)","29","1"
"1188","溪洲公園停車場","34","8","板橋區","20171124175930","24.986723","121.426820","溪崑二街145號","Banqiao Dist.","Xizhou Park","No.145, Xikun 2nd St.","26","1"
"1189","崑崙公園","38","15","板橋區","20171124175929","24.993406","121.429636","大觀路三段212巷70號對面","Banqiao Dist.","Kunlun Park","No.70, Aly. 212, Sec. 3, Daguan Rd. (opposite)","22","1"
"1190","捷運海山站(3號出口)","40","28","土城區","20171124175941","24.986923","121.449335","海山路46號對面機車格位","Tucheng Dist.","MRT Haishan Sta.(Exit 3)","No.46, Haishan Rd. (opposite)","12","1"
"1191","興化公園","38","1","新莊區","20171124175924","25.065234","121.461115","五工二路/五工三路50巷","Xinzhuang Dist.","Xinhua Park","Wugong 2nd Rd./Ln. 50, Wugong 3rd Rd.","37","1"
"1192","潤泰社區","36","10","板橋區","20171124175916","25.017953","121.479375","三民路二段35巷口","Banqiao Dist.","Runtai Community","Ln. 35, Sec. 2, Sanmin Rd.","25","1"
"1193","西盛館","30","7","新莊區","20171124175924","25.011905","121.432713","新樹路499號前人行道(西盛館)","Xinzhuang Dist.","Xi Sheng Guan","No.499, Xinshu Rd.","23","1"
"1194","秀朗成功路口","40","22","中和區","20171124175941","24.995821","121.526550","秀朗路三段 / 成功路二段","Zhonghe Dist.","Xiulang & Chenggong Intersection","Sec. 3, Xiulang Rd./Sec. 2, Chenggong Rd.","18","1"
"1195","板橋國中","54","22","板橋區","20171124175926","25.024903","121.454310","中正路441號前人行道","Banqiao Dist.","Banqiao Junior High School","No.441, Zhongzheng Rd.","31","1"
"1196","永豐公園活動中心","32","16","板橋區","20171124175924","25.021127","121.476853","永豐街221號","Banqiao Dist.","Yongfeng  Park Activity Center","No.221, Yongfeng St.","13","1"
"1197","義仁市民活動中心","36","4","泰山區","20171124175955","25.050479","121.427667","明志路二段177號","Taishan Dist.","Yiren civil activity center","No.177, Sec. 2, Mingzhi Rd.","31","1"
"1198","鶯歌國中","34","5","鶯歌區","20171124175927","24.951734","121.342963","建國路420號對面人行道","Yingge Dist.","Yingge Junior High School","No.420, Jianguo Rd.(opposite)","29","1"
"1199","捷運迴龍站(3號出口)","60","29","新莊區","20171124175918","25.022760","121.413053","中正路/中正路746巷","Xinzhuang Dist.","MRT Huilong Sta.(Exit 3)","Zhongzheng Rd./Ln. 746, Zhongzheng Rd.","31","1"
"1200","捷運先嗇宮站(2號出口)","50","21","三重區","20171124175936","25.046068","121.470987","重新路五段515號","Sanchong Dist.","MRT Xianse Temple Sta.(Exit.2)","No.515, Sec. 5, Chongxin Rd.","29","1"
"1201","鶯歌火車站(仁愛路)","58","45","鶯歌區","20171124175936","24.955591","121.354376","仁愛路55號對側人行道","Yingge Dist.","Yingge Railway Station(Ren’ai  Rd.)","No.55, Ren’ai Rd., Yingge Dist.(opposite)","11","1"
"1202","建國育英路口","50","0","鶯歌區","20170925085632","24.952761","121.347193","鶯歌區建國路/育英街口機車停車場內","Yingge Dist.","Chienkuo & Yuying Intersection","Jianguo Rd./Yuying St.","0","0"
"1203","鶯歌陶瓷老街","44","11","鶯歌區","20171124175918","24.952226","121.351035","鶯歌區尖山埔路/國慶街(停車場內)","Yingge Dist.","Yingge ceramics old street","Jianshanpu Rd./Guoqing St.","32","1"
"1204","立泰里(中環路二段)","40","9","新莊區","20171124175927","25.045676","121.442133","新莊區中環路二段423號(對面橋下)","Xinzhuang Dist.","Litai Village(Zhonghuan Rd. Sec. 2)","No.423, Sec. 2, Zhonghuan Rd.(opposite)","31","1"
"1205","竹圍公園","28","13","淡水區","20171124175936","25.138234","121.463395","淡水區民生路108號旁公園通道(竹圍公園)","Tamsui Dist.","Chuwei Park","No.108, Minsheng Rd.","15","1"
"1206","新北市立鶯歌陶瓷博物館","40","27","鶯歌區","20171124175936","24.949549","121.352832","鶯歌區文化路407號","Yingge Dist.","New Taipei City Yingge Ceramics  Museum","No.407, Wenhua Rd.","13","1"
"1207","浮洲合宜住宅(樂群路)","46","20","板橋區","20171124175939","24.996327","121.445450","板橋區合宜路/樂群路口","Banqiao Dist.","Fuzhou Apartment(Lequn Rd.)","Heyi Rd./Lequn Rd.","26","1"
"1208","尖山公園","44","7","鶯歌區","20171124175919","24.948220","121.345767","鶯歌區尖山路161號對面","Yingge Dist.","Jianshan Park","No.161, Jianshan Rd.(opposite)","37","1"
"1209","崇德橋東活動中心","26","13","汐止區","20171124175831","25.070512","121.667002","茄苳路84號(崇德橋東里民活動中心前)","Xizhi Dist.","Chungde-Ciaodong Activity Center","No.84, Jiadong Rd.","13","1"
"1210","樹林區衛生所","38","14","樹林區","20171124175927","24.983768","121.415032","新北市樹林區中山路二段80-1號對面機車停車格","Shulin Dist.","Shulin District Public Health Center","No.80-1, Sec. 2, Zhongshan Rd.(opposite)","23","1"
"1211","溪墘公園","36","11","蘆洲區","20171124175921","25.079969","121.476205","信義路73巷2號對面公園人行道","Luzhou Dist.","Si Cian Park","No.2, Ln. 73, Xinyi Rd.(oppsite)","25","1"
"1212","育德國小","34","14","樹林區","20171124175843","24.970656","121.392602","育德街13號對面人行道","Shulin Dist.","Yude Elementary School","No.13, Yude St.(oppsite)","20","1"
"1213","彭福國小","40","2","樹林區","20171124175934","24.980335","121.423104","國凱街130號對面","Shulin Dist.","Pengfu Elementary School","No.130, Guokai St.(oppsite)","37","1"
"1214","民享藝文特區","36","24","中和區","20171124175927","25.003435","121.475345","民治街120號對面人行道","Zhonghe Dist.","Minxiang Art Zone","No.120, Minzhi St.(oppsite)","10","1"
"1215","億光電子(樹林高中)","40","4","樹林區","20171124175918","24.983567","121.423601","中華路 / 樹中二街口(學校側門對面人行道)","Shulin Dist.","Everlight Electronics Co.,Ltd (Shulin Senior High School)","Zhonghua Rd./Shuzhong 2nd St.(oppsite)","33","1"
"1216","捷運永寧站(2號出口)","44","19","土城區","20171124175924","24.965783","121.436227","承天路11號對面","Tucheng Dist.","MRT Yungning Sta.(EXIT 2)","No.11, Chengtian Rd.(oppsite)","25","1"
"1217","竿蓁市民活動中心","48","15","淡水區","20171124175925","25.165090","121.450831","中正東路一段3巷2號對面路側(亞太飯店旁)","Tamsui Dist.","Ganzhen Civil Activity Center","No.2, Ln. 3, Sec. 1, Zhongzheng E. Rd.(oppsite)","32","1"
"1218","長壽親子公園","38","36","樹林區","20171124175929","24.991853","121.421371","樹德街35號對面(公園內縮空間)","Shulin Dist.","Changshou Parent-child Park","No.35, Shude St.(oppsite)","2","1"
"1219","新市國小","36","15","淡水區","20171124175933","25.185313","121.444332","中山北路二段189巷2號對面人行道(新市國小)","Tamsui Dist.","Xinshi Elementary School","No.2, Ln. 189, Sec. 2, Zhongshan N. Rd.(oppsite)","20","1"
"1220","新北市立圖書館鶯歌分館","36","19","鶯歌區","20171124175929","24.957195","121.349704","中山路150號(圖書館內停車場)","Yingge Dist.","New Taipei City Library Yingge Branch","No.150, Zhongshan Rd.","17","1"
"1221","德音國小","36","8","五股區","20171124175918","25.071515","121.435670","明德路2號(德音國小成泰路路側人行道)","Wugu Dist.","De-Yin Elementary School","No.2, Mingde Rd.(oppsite)","28","1"
"1222","中山北新春街口","40","17","淡水區","20171124175944","25.180345","121.444742","中山北路一段/新春街(東南側)(公園籃球場前人行道)","Tamsui Dist.","Zhongshan North & Xinchun Intersection","Sec. 1, Zhongshan N. Rd./Xinchun St.","23","1"
"1223","正德國中","40","2","淡水區","20171124175936","25.178512","121.447874","北新路116號對面人行道(正德國中)","Tamsui Dist.","Zhengde Junior High School","No.116, Beixin Rd.(oppsite)","38","1"
"1224","金城立體停車場","42","11","土城區","20171124175925","24.984102","121.458595","金城路2段266號","Tucheng Dist.","Jincheng Parking Lot","No.266, Sec. 2, Jincheng Rd.","30","1"
"1225","先嗇宮","40","0","三重區","20171124175918","25.051190","121.476007","五谷王北街77號(後方停車場旁人行道)","Sanchong Dist.","Xianse Temple","No.77, Wuguwang N. St.","40","1"
"1226","板橋第一運動場","40","3","板橋區","20171124175926","25.009061","121.468352","板橋區海山路23號對面","Banqiao Dist.","Banqiao First Stadium","No.23, Haishan Rd.(oppsite)","37","1"
"1227","光興國小","36","22","三重區","20171124175940","25.060339","121.500103","光興街/文化南路口(西南側)(光興街路側)","Sanchong Dist.","Guangxing Elementary School","Guangxing St./Wenhua S. Rd.","13","1"
"1228","安和市民活動中心","38","2","新店區","20171124175918","24.975317","121.515687","安興路67號對面空地 (高架橋下)","Xindian Dist.","Anhe Activity Center","No.67, Anxing Rd.(oppsite)","36","1"
"1229","景安板南路口","30","8","中和區","20171124175931","24.992249","121.504443","景安路與板南路口(西南側三角公園)","Zhonghe Dist.","Jing’an / Bannan Intersection","Jing’an Rd./Bannan Rd.","22","1"
"1230","新月橋","50","21","新莊區","20171124175915","25.032300","121.450011","瓊林路1號旁(碧江公園旁)","Xinzhuang Dist.","Crescent Bridge","No.1, Qionglin Rd.","29","1"
"1231","修德國小","42","2","三重區","20171124175924","25.065295","121.490450","民生街74號對面人行道","Sanchong Dist.","Sioude Elementary School","No.74, Minsheng St.(oppsite)","39","1"
"1232","福祥里(中和溝)","38","28","中和區","20171124175918","25.005933","121.499565","福祥路90巷7弄1號對側空間","Zhonghe Dist.","Fuxiang Village (Zhonghe Ditch)","No.1, Aly. 7, Ln. 90, Fuxiang Rd.(oppsite)","10","1"
"1233","濱海義山路口","40","15","淡水區","20171124175920","25.189448","121.438708","濱海路一段125~219號前人行道","Tamsui Dist.","Binhai & Yishan Intersection","No.125 ~ No.219, Sec. 1, Binhai Rd.","25","1"
"1234","鴨母港抽水站","40","17","蘆洲區","20171124175925","25.082935","121.456728","永安南路二段334號(對面人行道)","Luzhou Dist.","Yamugang Pumping Station","No.334, Sec. 2, Yong’an S. Rd.","22","1"
"1235","捷運淡水站","106","36","淡水區","20171124175933","25.168826","121.444183","公明街73巷6號前(淡水老街廣場)","Tamsui Dist.","MRT Tamsui Station","No.6, Ln. 73, Gongming St.","68","1"
"1236","安成安德街口","36","8","新店區","20171124175924","24.961147","121.509988","安成街26號至36號對面","Xindian Dist.","Ancheng & Ande Intersection","No.26 ~ No.36, Ancheng St.(oppsite)","28","1"
"1237","淡水國民運動中心","46","17","淡水區","20171124175922","25.186496","121.443261","中山北路2段381巷2號","Tamsui Dist.","Tamsui Sports Center","No.2, Ln. 381, Sec. 2, Zhongshan N. Rd.","29","1"
"1238","捷運竹圍站","46","18","淡水區","20171124175936","25.137658","121.460112","民權路105號-115號前人行道","Tamsui Dist.","MRT Zhuwei Station","No.105 ~ No.115, Minquan Rd.","28","1"
"1239","龍門公園","38","9","三重區","20171124175932","25.074815","121.498484","公園街/仁福街 (龍門公園人行道上)","Sanchong Dist.","Longmen Park","Gongyuan St. / Renfu St.","29","1"
"1240","濱海中山北路口","34","0","淡水區","20171124175926","25.188887","121.443505","濱海中山北路口西南側人行道(家樂福廣場前人行道)","Tamsui Dist.","Binhai & Chungshan North Intersection","Binhai Rd. / Sec. 2, Zhongshan N. Rd.","34","1"
"1241","永安圖書館","36","22","蘆洲區","20171124175936","25.078599","121.462228","永安南路二段150號(對側人行道)","Luzhou Dist.","Yong-an Library","No.150, Sec. 2, Yong’an S. Rd.","14","1"
"1242","西盛廣場","34","6","新莊區","20171124175939","25.000894","121.431485","樹新路251號對面(西盛廣場人行道)","Xinzhuang Dist.","XiSheng Square","No.251, Shuxin Rd.(oppsite)","27","1"
"1243","三峽區公所(三峽老街)","42","6","三峽區","20171124175920","24.934187","121.369158","中山路17號(公所旁徒步區)","Sanxia Dist.","Sanxia District Office(Sanxia Old Street)","No.17, Zhongshan Rd.","36","1"
"1244","仁愛文化二路口","50","0","林口區","20171124175941","25.077118","121.374258","仁愛路二段559號前方人行道","Linkou Dist.","Ren-ai & Wenhua 2nd Rd. Intersection","No.559, Sec. 2, Ren’ai Rd.","48","1"
"1245","崑崙活力廣場","42","12","板橋區","20171124175916","24.993901","121.432880","大觀路三段133巷3號對面廣場","Banqiao Dist.","Kunlun Square","No.3, Ln. 133, Sec. 3, Daguan Rd.(oppsite)","29","1"
"1246","永盛公園","38","4","三重區","20171124175917","25.076133","121.484304","車路頭街139巷135號(對面人行道)","Sanchong Dist.","YongSheng Park","No.135, Ln. 139, Chelutou St.(oppsite)","34","1"
"1247","鷺江廣場","32","25","蘆洲區","20171124175917","25.085621","121.477694","信義路319巷22號(旁邊機車格前)","Luzhou Dist.","Lu Jiang square","No.22, Ln. 319, Xinyi Rd.(side)","7","1"
"1248","六張公園","36","14","三重區","20171124175941","25.069661","121.494048","安慶街149巷21號 (對面六張公園人行道)","Sanchong Dist.","Liuzhang Park","No.21, Ln. 149, Anqing St.(oppsite)","22","1"
"1249","中山佳林路口","36","17","林口區","20171124175938","25.079592","121.385587","中山路250-1號前方機車停車格","Linkou Dist.","Chungshan & Chalin Intersection","No.250-1, Zhongshan Rd.","18","1"
"1250","國立臺北大學(三峽校區)","58","12","三峽區","20171124175934","24.945553","121.373260","學勤路大學路口(面校門右側人行道)","Sanxia Dist.","National Taipei University(Sanxia Campus)","Xueqin Rd. / Daxue Rd. intersection","46","1"
"1251","林口區公所","34","22","林口區","20171124175927","25.076742","121.388181","仁愛路一段378號(林口區公所旁機車停車格)","Linkou Dist.","Linkou District Office","No.378, Sec. 1, Ren’ai Rd.","12","1"
"1252","新麗園社區","42","2","林口區","20171124175942","25.070428","121.376882","麗園一街/麗園一街11巷(對面人行道)","Linkou Dist.","Xinliyuan Community","Liyuan 1st St. / Ln. 11, Liyuan 1st St. intersection","40","1"
"1253","中正富國路口","42","19","新莊區","20171124175919","25.025940","121.417694","中正路879之16號門口(中國信託前的公車站旁)","Xinzhuang Dist.","Zhongzheng & Fuguo Intersection","No.879-16, Zhongzheng Rd.","23","1"
"1254","大同國小","36","2","樹林區","20171124175931","24.981146","121.416844","東榮街91巷(市場旁人行道)","Shulin Dist.","Datong Elementary School","Ln. 91, Dongrong St.(Side)","33","1"
"1255","新北市立圖書館五股成功分館","42","7","五股區","20171124175941","25.094784","121.446741","西雲路165號圖書館旁空地","Wugu Dist.","New Taipei City Library Wugu-Chenggong Branch","No.165, Xiyun Rd.","35","1"
"1256","民德立體停車場","32","8","中和區","20171124175925","24.999098","121.468345","中和區民德路188 號(立體停車場前方人行空間)","Zhonghe Dist.","Minde Parking Lot","No.188, Minde Rd.","23","1"
"1257","麗林公有市場","34","26","林口區","20171124175936","25.069123","121.367761","公園路59號(頂好超市側門)","Linkou Dist.","LiLin Market","No.59, Gongyuan Rd.","8","1"
"1258","南樹林火車站","34","14","樹林區","20171124175941","24.980236","121.408605","中山路二段東興路口(火車站右側人行道)","Shulin Dist.","Shulin South Station","Sec. 2, Zhongshan Rd. / Dongxing St. intersection","18","1"
"1259","新北市立鶯歌高級工商職業學校","40","6","鶯歌區","20171124175933","24.939095","121.334639","中正三路235~237號(對面人行道)","Yingge Dist.","New Taipei Municipal Yinggle Vocational High School","No.235-237, Zhongzheng 3rd Rd.(oppsite)","34","1"
"1260","行政院新莊聯合辦公大樓","44","19","新莊區","20171124175936","25.055969","121.444423","中平路/榮華路2段","Xinzhuang Dist.","Xinzhuang Joint Office Tower, Executive Yuan","Zhongping Rd./ Sec. 2, Ronghua Rd. intersection","25","1"
"1261","柑園五里聯合活動中心","40","13","樹林區","20171124175917","24.950576","121.386183","佳園路三段128號(活動中心左側人行道)","Shulin Dist.","5 Villages in Ganyuan Joint Activity Center","No.128, Sec. 3, Jiayuan Rd.","27","1"
"1262","中和自強公園","38","23","中和區","20171124175943","24.999132","121.472513","莒光路181號對側公園人行道旁","Zhonghe Dist.","Zhonghe Ziqiang Park","No.181, Juguang Rd.(oppsite)","14","1"
"1263","富貴森林公園","36","23","林口區","20171124175919","25.083156","121.378464","中山路/富貴路口(富貴路人行道上)","Linkou Dist.","Fugui Park","Zhongshan Rd. / Fugui Rd. intersection","13","1"
"1264","林口自強公園","36","2","林口區","20171124175915","25.078126","121.397208","自強三街3號旁人行道","Linkou Dist.","Linkou Ziqiang Park","No.3, Ziqiang 3rd St.","34","1"
"1265","永昌里兒一公園","36","26","鶯歌區","20171124175924","24.956661","121.339645","鶯桃路182巷96弄36-38號對側","Yingge Dist.","Yongchang Village Children Park (No.1)","No.36-38, Aly. 96, Ln. 182, Yingtao Rd.(oppsite)","10","1"
"1266","捷運林口站(1號出口)","60","22","林口區","20171124175942","25.065970","121.361962","文化三路/八德路口 (1號出口旁)","Linkou Dist.","MRT Linkou Sta. (Exit 1)","Sec. 2, Wenhua 3rd Rd. / Bade Rd. intersection","37","1"
"1267","南興公園","34","11","汐止區","20171124175933","25.059779","121.652549","南興路62號旁(南興公園內)","Xizhi Dist.","Nanxing Park","No.62, Nanxing Rd.","23","1"
"1268","立言公園","34","21","林口區","20171124175936","25.073427","121.362340","忠孝一路/民族路61巷交叉口","Linkou Dist.","Liyan Park","Zhongxiao 1st Rd. / Ln. 61, Minzu Rd. intersection","13","1"
"1269","溪北公園","36","9","板橋區","20171124175940","24.990060","121.432281","篤行路二段131巷35號(對面人行道)","Banqiao Dist.","Xibei Park","No.35, Ln. 131, Sec. 2, Duxing Rd.","27","1"
"1270","頂新祖田市民活動中心","34","17","土城區","20171124175920","24.952762","121.411701","中央路四段285號","Tucheng Dist.","Dingxin-Zutian Civic Activity Center","No.285, Sec. 4, Zhongyang Rd.","17","1"
"1271","貴和市民活動中心","34","8","泰山區","20171124175932","25.034961","121.421928","明志路三段353號旁公園","Taishan Dist.","Guihe Civil Activity Center","No.353, Sec. 3, Mingzhi Rd.","24","1"
"1272","頂埔國小","34","20","土城區","20171124175941","24.956343","121.414421","中央路四段205號(頂埔國小校門口)","Tucheng Dist.","Dingpu Elementary School","No.205, Sec. 4, Zhongyang Rd.","14","1"
"1273","三峽區礁溪行政中心","34","0","三峽區","20171027090101","24.928231","121.376064","光明路96-100號(對面機車格)","Sanxia Dist.","Chiaohsi Office of Sanxia District","No.96-100, Guangming Rd.(oppsite)","34","1"
"1274","林口國小","36","16","林口區","20171124175940","25.080533","121.389307","林口路77號對面林口國小旁人行道","Linkou Dist.","Linkou Elementary School","No.77, Linkou Rd.(oppsite)","20","1"
"1275","南勢市民活動中心","34","24","林口區","20171124175939","25.074035","121.358924","南勢二街154號旁","Linkou Dist.","Nanshih Civil Activity Center","No.154, Nanshi 2nd St.(Side)","10","1"
"1276","青山廣場","36","20","土城區","20171124175930","24.977837","121.459751","明德路一段240巷1號(雜貨店前人行道)","Tucheng Dist.","Qingshan Square","No.1, Ln. 240, Sec. 1, Mingde Rd.","16","1"
"1277","林口社區運動公園","36","14","林口區","20171124175936","25.074150","121.377001","文化一路一段/仁愛路二段口(林口社區運動公園文化一路側人行道)","Linkou Dist.","Linkou Community Sports Park","Sec. 1, Wenhua 1st Rd./Sec. 2, Ren’ai Rd.(intersection)","22","1"
"1278","捷運新莊站 ( 2號出口 )","40","32","新莊區","20171124175920","25.036075","121.452792","新莊路214巷(捷運新莊站2號出口旁邊)","Xinzhuang Dist.","MRT Xinzhuang Sta. (Exit 2)","Ln. 214, Xinzhuang Rd.","8","1"
"1279","俊英俊保路口","30","16","樹林區","20171124175929","25.009150","121.425183","俊英街俊保路口(西北側人行道)","Shulin Dist.","Junying & Junbao Intersection","Junying St./Junbao Rd.(intersecion)","14","1"
"1280","洲子洋公園","38","8","五股區","20171124175937","25.094701","121.448105","成泰路三段公園路口東側洲子洋公園路側原機車停車格","Wugu Dist.","Zhouziyang Park","Sec. 3, Chengtai Rd./Gongyuan Rd.(intersecion)","28","1"
"1281","學成大義路口","46","19","樹林區","20171124175936","24.945099","121.378671","學成路大義路口(西北側人行道)","Shulin Dist.","Xuecheng & Dayi Intersection","Xuecheng Rd./Dayi Rd.(intersecion)","26","1"
"1282","捷運頭前庄站(1號出口)","52","28","新莊區","20171124175925","25.039365","121.460856","中正路/思源路(東北側)(捷運頭前庄站1號出口旁廣場)","Xinzhuang Dist.","MRT Touqianzhuang Sta.(Exit.1)","Zhongzheng Rd./Siyuan Rd.(intersection)","24","1"
"1283","文化機車立體停車場","32","5","淡水區","20171124175924","25.172485","121.438806","文化路57號(立體停車場地下一樓)","Tamsui Dist.","Wenhua Motorcycle Parking Lot","No.57, Wenhua Rd.(Basement 1)","27","1"
"1284","成德公園","36","13","五股區","20171124175919","25.105052","121.452963","成泰路三段成洲八路口東北側成德公園路側","Wugu Dist.","Chengde Park","Sec. 3, Chengtai Rd./Chengzhou 8th Rd.(intersecion)","23","1"
"1285","頭湖國小","38","18","林口區","20171124175924","25.081673","121.372687","民權路101號旁(植栽帶)","Linkou Dist.","Touhou Elementary School","No.101, Minquan Rd.","20","1"
"1286","金城立德路口","38","4","土城區","20171124175939","24.986691","121.465481","金城路三段19-30號(路側人行道)","Tucheng Dist.","Jincheng & Lide Intersection","No.19-30, Sec. 3, Jincheng Rd.(Side)","34","1"
"1287","恩主公醫院","66","42","三峽區","20171124175915","24.938912","121.363553","復興路372號(對面公車亭後方人行道)","Sanxia Dist.","En Chu Kong Hospital","No.372, Fuxing Rd.(oppsite)","22","1"
"1288","中和區公所","32","15","中和區","20171124175931","24.998558","121.500533","景平路634-2號 ( 中和區公所正門機車格位 )","Zhonghe Dist.","Zhonghe District Office","No.634-2, Jingping Rd.","17","1"
"1289","忠山市民活動中心","36","22","汐止區","20171124175933","25.078202","121.624493","忠三街8號(活動中心旁籃球場空間)","Xizhi Dist.","Jhongshan Civil Activity Center","No.8, Zhong 3rd St.","14","1"
"1290","三重永豐公園","32","7","三重區","20171124175920","25.074629","121.478162","永福街197巷6之1號","Sanchong Dist.","San chong Yongfeng Park","No.6-1, Ln. 197, Yongfu St.","23","1"
"1291","臺灣藝術大學","40","6","板橋區","20171124175915","25.007502","121.448000","大觀路一段51號(郵局旁邊)","Banqiao Dist.","National Taiwan University of Arts","No.51, Ln. 197, Sec. 1, Daguan Rd.","33","1"
"1292","新莊體育館","40","10","新莊區","20171124175925","25.040766","121.452459","中華路一段136巷對面","Xinzhuang Dist.","Xinzhuang Gymnasium","Ln. 136, Sec. 1, Zhonghua Rd.(oppsite)","29","1"
"1293","永和耕莘醫院","32","20","永和區","20171124175929","25.011232","121.517701","國光路123號 ( 耕莘醫院外路側汽機車格位 )","Yonghe Dist.","Yonghe Cardinal Tien Hospital","No.123, Guoguang Rd.","12","1"
"1294","三多國小","34","3","樹林區","20171124175937","25.016405","121.407135","三福街83-89號(對面人行道)","Shulin Dist.","Sanduo Elementary School","No.83-89, Sanfu St.(oppsite)","30","1"
"1295","永安兒童公園","30","21","蘆洲區","20171124175927","25.082273","121.482236","永安北路2段/永安北路2段35巷","Luzhou Dist.","Yongan Children's Park","Sec. 2, Yong’an N. Rd./ Ln. 35, Sec. 2, Yong’an N. Rd.(intersection)","9","1"
"1296","新北市立中和高級中學","36","0","中和區","20171124175921","24.993700","121.478230","連城路460號(大門旁右側人行空間)","Zhonghe Dist.","New Taipei Municipal Zhonghe Senior High School","No.460, Liancheng Rd.","36","1"
"1297","扶輪公園","40","23","林口區","20171124175933","25.072864","121.369480","文化二路一段/文化二路一段309巷","Linkou Dist.","Fulun Park","Sec. 1, Wenhua 2nd Rd./ Ln. 309, Sec. 1, Wenhua 2nd Rd.(intersecion)","16","1"
"1298","安邦公園","34","26","中和區","20171124175944","24.996867","121.496647","安邦街與連勝街口(交叉路口西北側)","Zhonghe Dist.","Anbang Park","Anbang St./Liansheng St.(intersection)","8","1"
"1299","立德公園","34","15","林口區","20171124175924","25.076441","121.367223","仁愛二路與民族路口交叉口","Linkou Dist.","Lide Park","Ren’ai 2nd Rd./ Minzu Rd.(intersection)","19","1"
"1300","新北市政府(新站路)","38","17","板橋區","20171124175928","25.012614","121.466455","中山路一段161號(東側出口)","Banqiao Dist.","New Taipei City Hall ( Xinzhan Rd)","No.161, Sec. 1, Zhongshan Rd.","20","1"
"1301","清水高中","34","2","土城區","20171124175925","24.982756","121.465444","土城區明德路一段72號","Tucheng Dist.","Qing Shui Senior High School","No.72, Sec. 1, Mingde Rd.","32","1"
"1302","板橋車站","80","60","板橋區","20171124175927","25.015519","121.463735","新站路/站前路口(十字路口西側)","Banqiao Dist.","Banqiao Station","Xinzhan Rd. / Zhanqian Rd.(intersection)","20","1"
"1303","樹林國民運動中心","34","18","樹林區","20171124175919","25.004186","121.422847","樹林區中正路188-6號","Shulin Dist.","Shulin  Civil  Sports Center","No.188-6,Zhongzheng Rd.,Shulin Dist.","13","1"
"1304","捷運輔大站(4號出口)","42","24","新莊區","20171124175931","25.033025","121.436484","新莊區 中正路510之1號","Xinzhuang Dist.","MRT Fu Jen University Sta.(Exit.4)","No.510-1, Zhongzheng Rd., Xinzhuang Dist.","16","1"
"1305","民安東民全街口","36","17","新莊區","20171124175921","25.020774","121.429556","新莊區民安東路48號前人行道","Xinzhuang Dist.","Min’an E.& Minquan Intersection","No.48 Min’an E. Rd., Xinzhuang Dist.","19","1"
"1306","中興北街175巷口","32","22","三重區","20171124175924","25.055970","121.471327","三重區中興北街175巷10號對面(路側)","Sanchong Dist.","Zhongxing N. St. 175 Ln","No.10, Ln. 175,Zhongxing N. St., Sanchong Dist.","9","1"
"1307","仁愛路151巷口","44","13","汐止區","20171124175931","25.064819","121.663885","汐止區仁愛路153號門口(路側)","Xizhi Dist.","Ren Ai Rd 151 Ln","No.153, Ren’ai Rd., Xizhi Dist.","31","1"
"1308","五股工商立體停車場","40","12","五股區","20171124175927","25.082494","121.439555","五股區中興路四段19-1號(對面人行道)","Wugu Dist.","Wugu Gongshang Parking Towe","No.19-1, Sec. 4, Zhongxing Rd., Wugu Dist(oppsite)","28","1"
"1309","沛陂社區公園","34","9","土城區","20171124175938","24.963289","121.419672","土城區三民路23巷8弄(公園裡面)","Tucheng Dist.","Peipo Community Park","Aly. 8, Ln. 23, Sanmin Rd., Tucheng Dist","25","1"
"1310","佳和公園","34","19","中和區","20171124175926","25.006927","121.503171","中和區中山路二段2巷27號(對面公園)","Zhonghe Dist.","Chiahe Park","No.27, Ln. 2, Sec. 2, Zhongshan Rd., Zhonghe Dist(oppsite)","15","1"
"1311","溪頭公園","40","22","板橋區","20171124175921","25.033086","121.468403","板橋區溪頭街352號前面人行道","Banqiao Dist.","Xitou Park","No.352, Xitou St., Banqiao Dist.","18","1"
"1312","龍鳳公園","40","2","新莊區","20171124175936","25.021447","121.416497","新莊區龍安路72號對面(公園人行道)","Xinzhuang Dist.","Longfeng Park","No.72, Long’an Rd., Xinzhuang Dist.(oppsite)","36","1"
"1313","伊吉邦社區","46","14","新莊區","20171124175931","25.030186","121.413402","新莊區新北大道7段312號(人行道)","Xinzhuang Dist.","Yijibang","No.312, Sec. 7, New Taipei Blvd., Xinzhuang Dist","32","1"
"1314","三多第1市民活動中心","34","2","樹林區","20171124175936","25.016361","121.404257","樹林區福興街17號(活動中心前機車格)","Shulin Dist.","First of Sanduo Civil Activity Center","No.17, Fuxing St., Shulin Dist","30","1"
"1315","新北高工","44","17","土城區","20171124175936","24.982770","121.449900","新北市土城區學府路一段241號","Tucheng Dist.","New Taipei Industrial Vocational High School","No.241, Sec. 1, Xuefu Rd., Tucheng Dist","26","1"
"1316","瑞芳火車站","44","23","瑞芳區","20171124175925","25.108506","121.806460","民權路鐵道巷14號(東側機車停車場)","Ruifang Dist.","Ruifang Train Station","No.14, Railway Ln., Minquan St., Ruifang Dist.","17","1"
"1317","長風社區","36","9","土城區","20171124175940","24.978108","121.439369","土城區中華路二段91~95號(人行道)","Tucheng Dist.","Changfeng Community","No.91~95, Sec. 2, Zhonghua Rd., Tucheng Dist","25","1"
"1318","永和國民運動中心","40","9","永和區","20171124175940","25.003555","121.524246","永和區永利路141號(對面人行道)","Yonghe Dist.","Yonghe Civil Sports Center","No.141, Yongli Rd., Yonghe Dist(oppsite)","27","1"
"1319","民樂人行廣場","36","11","中和區","20171124175939","25.001834","121.482594","中和區員山路266巷39號(對面路側)","Zhonghe Dist.","Minle Jenhsing Square","No.39, Ln. 266, Yuanshan Rd., Zhonghe Dist.","23","1"
"1320","民生親子公園","30","2","樹林區","20171124175944","24.992983","121.428196","新北市樹林區保安街一段/保安街一段14巷","Shulin Dist.","Minsheng Parent-child Park","No.1, Ln. 14, Sec. 1, Bao’an St., Shulin Dist","28","1"
"1321","樹林工業區","38","5","樹林區","20171124175920","25.000868","121.416091","樹林區保安街二段6號(前面廣場)","Shulin Dist.","Shulin industrial zone","No.6, Sec. 2, Bao’an St., Shulin Dist.(square)","33","1"
"1322","防災公園","36","25","三峽區","20171124175919","24.938911","121.373676","新北市三峽區國光街85號","Sanxia Dist.","Fangzai Park","No.85, Guoguang St., Sanxia Dist","10","1"
"1323","尖山國中","32","11","鶯歌區","20171124175928","24.944300","121.342089","鶯歌區國中街1號(人行道)","Yingge Dist.","Municipal Jianshan Junior High School","No.1, Guozhong St., Yingge Dist(sidewalk)","21","1"
"1324","新北市立圖書館新店分館","36","15","新店區","20171124175918","24.982138","121.540903","新店區北新路三段105巷2號(路側)","Xindian Dist.","New Taipei City Library Xindian Branch","No.2, Ln. 105, Sec. 3, Beixin Rd., Xindian Dist.","20","1"
"1325","浮洲火車站","48","38","板橋區","20171124175941","25.004098","121.444447","板橋區僑中二街/大觀路一段38巷(自行車停放區內)","Banqiao Dist.","Fuzhou Train Station","No.90, Ln. 38, Sec. 1, Daguan Rd./Qiaozhong 2nd St., Banqiao Dist.","10","1"
"1326","捷運海山站(1號出口)","80","54","土城區","20171124175921","24.984695","121.448504","土城區海山路(捷運海山站1號出口人行道)","Tucheng Dist.","MRT Haishan","Haishan Rd., Tucheng Dist.(MRT Haishan 1)","23","1"
"1327","深坑區公所(深坑老街)","50","16","深坑區","20171124175939","25.0015","121.616311","新北市深坑區文化街45號(兒童公園旁)","shenkeng Dist.","Shenkeng District Office(Shenkeng Old Street)","No.45, Wenhua St., Shenkeng Dist(park)","33","1"
"1328","東南科技大學","34","9","深坑區","20171124175947","25.0033","121.602501","深坑區北深路三段170號(對面機車格)","shenkeng Dist.","Tungnan University","No.170, Sec. 3, Beishen Rd., Shenkeng Dist","25","1"
"1329","德光國光街口","34","20","中和區","20171124175946","25.003136","121.468087","中和區德光國光街口(巷子路側)","Zhonghe Dist.","Tekuang & Kuokuang Intersection","Deguang Rd., Zhonghe Dist./Guoguang St.","12","1"
"1330","瑞芳區公所","30","9","瑞芳區","20171124175930","25.108472","121.809735","逢甲路82號(對面機車停車場)","Ruifang Dist.","Ruifang District Office","No.82, Fengjia Rd., Ruifang Dist.","20","1"
"1331","永和國父紀念館","30","28","永和區","20171124175933","25.008390","121.520234","永和區國光路9號(前人行道)","Yonghe Dist.","Yonghe-Sun Yat-Sen Memorial Hall","No.9, Guoguang Rd., Yonghe Dist.","1","1"
"1332","台北得意GO","30","15","五股區","20171124175931","25.074424","121.467852","五股區四維路116號(人行道)","Wugu Dist.","Taipei Deyi GO","No. 116, Siwei Rd., Wugu Dist.","15","1"
"1333","大觀國中","40","8","板橋區","20171124175940","25.011210","121.447237","板橋區僑中二街8巷(對面人行道)","Banqiao Dist.","Daguan Junior High School","Ln. 8, Qiaozhong 2nd St., Banqiao Dist.(oppsite)","29","1"
"1334","太陽公園","32","10","三重區","20171124175917","25.086448","121.485599","三重區三賢街203號(對面汽車格)","Sanchong Dist.","Taiyang Park","No.203, Sanxian St., Sanchong Dist","20","1"
"1335","三重五常公園","28","6","三重區","20171124175915","25.080648","121.496149","三重區五華街7巷(對面公園人行道)","Sanchong Dist.","Wuchang Park(Sanchong Dist)","Ln. 7, Wuhua St., Sanchong Dist","21","1"
"1336","三德公園","36","11","三重區","20171124175939","25.074974","121.500542","三重區仁和街205號(斜對面公園人行道)","Sanchong Dist.","Sante Park","No.205, Renhe St., Sanchong Dist","24","1"
"1337","力行大勇街口","30","10","三重區","20171124175924","25.071928","121.481508","三重區力行路/大勇街口(路側)","Sanchong Dist.","Lixing & Tayung Intersection","Sec. 1, Lixing Rd., Sanchong Dist.,/,Dayong St., Sanchong Dist.(oppsite)","20","1"
"1338","蘆洲延平派出所","36","17","蘆洲區","20171124175924","25.081620","121.461620","蘆洲區長安街102巷5弄12號(對面)","Luzhou Dist.","Luzhou Yanping Police Station","No.12, Aly. 5, Ln. 102, Chang’an St., Luzhou Dist.","18","1"
"1339","永安南路九芎街71巷口","36","17","蘆洲區","20171124175936","25.077564","121.466071","蘆洲區永安南路/九芎街71巷口(對面人行道)","Luzhou Dist.","Yong' an S. Rd. & Ln. 71, Jiuqiong St Intersection","No.1, Sec. 2, Yong’an S. Rd., Luzhou Dist/No.1, Ln. 71, Jiuqiong St.","17","1"
"1340","福和宮","50","29","中和區","20171124175929","25.001110","121.501991","中和區廣福路112號(人行道)","Zhonghe Dist.","Fuhe Temple","No.112, Guangfu Rd., Zhonghe Dist","21","1"
"1341","飛駝社區(興南路)","42","25","中和區","20171124175942","24.983471","121.504826","中和區興南路二段159巷4號(人行道)","Zhonghe Dist.","Feito Community(Xingnan Rd.)","No.4, Ln. 159, Sec. 2, Xingnan Rd., Zhonghe Dist(sidewalk)","17","1"
"1342","保平路214巷","30","2","永和區","20171124175936","25.007010","121.509208","永和區保平路214巷12弄12號(對面路側)","Yonghe Dist.","Baoping Ln 214","No.12, Aly. 12, Ln. 214, Baoping Rd., Yonghe Dist.","28","1"
"1343","汐科火車站(南)","48","11","汐止區","20171124175920","25.062884","121.646597","汐止區大同路二段182號(人行道)","Xizhi Dist.","Xike Railway Station(South)","No.182, Sec. 2, Datong Rd., Xizhi Dist.","36","1"
"1344","樹林國小","34","24","樹林區","20171124175936","24.989103","121.418296","樹林區啟智街/文化街口(啟智街129號)","Shulin Dist.","Shulin elementary school","Wenhua St./Qizhi St., Shulin Dist., New Taipei City","9","1"
"1345","永吉國小","36","29","鶯歌區","20171124175920","24.958747","121.333095","鶯歌區德昌二街39號(對面人行道)","Yingge Dist.","Yongchi elementary school","No.39, Dechang 2nd St., Yingge Dist.","7","1"
"1346","中園國小","36","16","三峽區","20171124175932","24.927551","121.366919","三峽區弘園街55號(對面人行道)","Sanxia Dist.","Zhongyuan elementary school","No.55, Hongyuan St., Sanxia Dist","19","1"
"1347","介壽國小","30","10","三峽區","20171124175937","24.930341","121.378835","三峽區介壽路一段/大同路口(人行道)","Sanxia Dist.","Jieshou elementary school","No.1, Sec. 1, Jieshou Rd., Sanxia Dist./ Datong Rd.","20","1"
"1348","安溪國中","32","4","三峽區","20171124175931","24.926790","121.371957","三峽區中正路一段/大同路(人行道路橋旁)","Sanxia Dist.","Ansi Junior High School","Zhongzheng Road Section / Datong Road (next to the sidewalk)","28","1"
"1349","龍埔國小","38","7","三峽區","20171124175940","24.941224","121.376763","三峽區大學路47號(對面人行道)","Sanxia Dist.","Longpu elementary school","No.47, Daxue Rd., Sanxia Dist.","31","1"
"1350","大安路與中山路二段口","34","20","樹林區","20171124175933","24.983043","121.411318","樹林區大安路622號(前人行道)","Shulin Dist.","Daan & Sec.2 Zhongshan Intersection","No. 622, Daan Rd., Shulin Dist.","14","1"
"1351","樹林區公所","40","22","樹林區","20171124175925","24.989760","121.424780","樹林區博愛街198-1~198-5號(對面人行道)","Shulin Dist.","Shulin District Office","No.198-1~198-5, Bo’ai St., Shulin Dist.","17","1"
"1352","蘆洲重陽大樓","30","13","蘆洲區","20171124175936","25.085055","121.481887","重陽二街22號(對面人行道)","Luzhou Dist.","Luzhou Chongyang Building","No.22, Chongyang 2nd St., Luzhou Dist.","7","1"
"1353","埔墘國小","34","15","板橋區","20171124175943","25.019078","121.473724","新北市板橋區永豐街44號","Banqiao Dist.","Puqian Elementary School","No.44, Yongfeng St., Banqiao Dist","18","1"
"1354","圓通錦和路口","46","11","中和區","20171124175918","24.989236","121.491482","中和區圓通路367巷路側(46-52停車格)","Zhonghe Dist.","Yuantong & Jinhe Intersection","Ln. 367, Yuantong Rd., Zhonghe Dist.","34","1"
"1355","下庄市場","30","15","八里區","20171124175937","25.146498","121.399748","舊城路19號前","Bali Dist.","Shia Juang Market","No.19, Jiucheng Rd., Bali Dist","14","1"
"1356","亞洲員安路口","34","14","土城區","20171124175932","24.972621","121.434796","亞洲路94號(對面人行道)","Tucheng Dist.","Yazhou & Yuan'an Rd.","No. 94, Yazhou Rd., Tucheng Dist.","20","1"
"1357","大安路307巷口","32","10","樹林區","20171124175920","24.992158","121.417726","樹林區大安路307巷口","Shulin Dist.","Ln. 307 Daan & Daan Intersection","Ln. 307 Daan & Daan Intersection, Shulin Dist.","22","1"
"1358","漁人碼頭","50","29","淡水區","20171124175936","25.183869","121.411178","觀海路199號(右側人行廣場)","Tamsui Dist.","Fisherman's Wharf","No. 199, Guanhai Rd., Tamsui Dist.","21","1"
"1359","味王街","30","13","樹林區","20171124175938","24.974674","121.404424","味王街3號(馬路側)","Shulin Dist.","St. Weiwang","No. 3, Weiwang Street, Shulin Dist.","17","1"
"1360","福基公園","32","3","新莊區","20171124175940","25.058100","121.460892","福美街128巷12號","Xinzhuang Dist.","Zhenyi Village Park","No.12, Ln. 128, Fumei St., Xinzhuang Dist.","29","1"
"1361","振義里公園","30","11","板橋區","20171124175930","25.023888","121.483965","萬安街55號(對面機車停車格)","Banqiao Dist.","Zhenyi Village Park","No. 55, Wanan Street, Banqiao Dist.","17","1"
"1362","安溪國小","36","7","三峽區","20171124175917","24.930621","121.372344","中華路61號(對面路側)","Sanxia Dist.","Anxi Elementary School","No.61, Zhonghua Rd., Sanxia Dist.","28","1"
"1363","中和安和路口","34","0","中和區","20171124175933","24.999667","121.506022","中和路與安和路口","Zhonghe Dist.","Zhonghe & Anhoe Rd.","Zhonghe Rd./Anhe Rd., Zhonghe Dist.","33","1"
"1364","元氣大鎮社區","30","11","中和區","20171124175919","25.005718","121.478997","中山路三段與台新街口","Zhonghe Dist.","Uanchi Big Town Commun","Sec. 3, Zhongshan Rd./Taixin St., Zhonghe Dist.","19","1"
"1365","員勝公園","40","27","中和區","20171124175926","25.010284","121.478686","員山路591號(巷內)","Zhonghe Dist.","Yuansheng Park","No.591, Yuanshan Rd., Zhonghe Dist.","13","1"
"1366","永和自由街","32","19","永和區","20171124175943","25.005200","121.513339","永和區 自由街69號(路側)","Yonghe Dist.","Yongle Village ( zihyou St. )","Ziyou St., Yonghe Dist.(oppsite)","12","1"
"1367","安樂宜安路口","36","8","中和區","20171124175942","24.995273","121.513506","中和區安樂路101之1號","Zhonghe Dist.","Anle & Yian Rd. Intersection","No.1, Anle Rd., Zhonghe Dist.","26","1"
"1368","昌隆國小","36","19","新莊區","20171124175933","25.052129","121.454891","昌平街/昌平街31巷(對面昌隆國小人行道)","Xinzhuang Dist.","Changlong Elementary School","Changping Street / Changping Street 31 Lane (opposite the Changlong Primary School sidewalk)","16","1"
"1369","捷運新莊副都心站","46","37","新莊區","20171124175940","25.059145","121.446614","新莊區新北大道四段/中信街口(捷運副都心站2號出口)","Xinzhuang Dist.","MRT Xinzhuang Fuduxin Sta.","Sec. 4, New Taipei Blvd./Zhongxin St., Xinzhuang Dist.","9","1"
"1370","捷運泰山站","34","6","泰山區","20171124175917","25.053127","121.439683","新北大道四段389號(捷運泰山站內廣場)","Taishan Dist.","MRT Taishan Sta.","No.389, Sec. 4, New Taipei Blvd., Taishan Dist.","25","1"
"1371","八里中庄市場綜合大樓","36","15","八里區","20171124175928","25.159934","121.414074","中山路一段268巷2號(對面汽車停車場)","Bali Dist.","Bali Chung Chuang Market Multi-Purpose Building","No. 2, Ln. 268, Sec. 1, Zhongshan Rd., Bali Dist.","19","1"
"1372","江翠國中","30","3","板橋區","20171124175924","25.027987","121.468512","板橋區松江街63號(對面路側)","Banqiao Dist.","Jiangcui Junior High School","No.63, Songjiang Street, Banqiao District (opposite to the road side)","27","1"
"1373","捷運新北產業園區站","44","22","新莊區","20171124175929","25.062029","121.459184","新莊區五工路55號","Xinzhuang Dist.","MRT New Taipei Industrial Park Sta.","No.55, Wugong Rd., Xinzhuang Dist.","21","1"
"1374","捷運泰山貴和站","36","19","泰山區","20171124175932","25.033192","121.422215","泰山區新北大道6段/貴陽街(貴陽街12號對面捷運站)","Taishan Dist.","MRT Taishan Guihe Sta.","Sec. 6, New Taipei Blvd./No.12, Guiyang St., Taishan Dist.","17","1"
"1375","龍形停車場","40","14","八里區","20171124175916","25.130410","121.451302","龍米路一段318號(對面停車場)","Bali Dist.","Long Xing Parking Tower","No. 318, Sec 1, Longmi Rd., Bali Dist.","25","1"
"1376","捷運紅樹林站","58","13","淡水區","20171124175940","25.153578","121.459124","淡水區中正東路2段68號(南向廣場)","Tamsui Dist.","MRT Hongshulin Sta.","No.68, Sec. 2, Zhongzheng E Rd., Tamsui Dist.","45","1"
"1377","大庄一號公園","28","5","淡水區","20171124175942","25.181957","121.422185","沙崙路97號對面人行道(大庄一號公園)","Tamsui Dist.","Dachuang Park No.1","No. 97, Shalun Rd., Tamsui Dist.","20","1"
"1378","三井Outlet","50","11","林口區","20171124175938","25.071574","121.366303","林口區文化二路一段241巷(三井Outlet北邊出口）","Linkou Dist.","MITSUI OUTLET PARK","Ln. 241, Sec. 1, Wenhua 2nd Rd., Linkou Dist.","37","1"
"1379","貿商國宅","40","13","五股區","20171124175943","25.069463","121.43031","登林路76-3號(前人行道)","Wugu Dist.","Mao Shang Public Housing","No.76-3, Denglin Rd., Wugu Dist.","26","1"
"1380","中正北路193巷(愛買三重店)","42","9","三重區","20171124175933","25.071362","121.475985","中正北路193巷45號(賣場停車場)","Sanchong Dist.","Ln. 193, Zhongzheng N. Rd(A.Mart Sanchong)","No.45, Ln. 193, Zhongzheng N. Rd., Sanchong Dist.","33","1"
"1381","翔譽雙子星","36","4","三重區","20171124175941","25.053638","121.492924","中正南路251號(右側人行道)","Sanchong Dist.","Xiang Yu Twin Towers","No.251, Zhongzheng S. Rd., Sanchong Dist.","32","1"
"1382","明志科技大學","50","2","泰山區","20171124175929","25.040434","121.422548","工專路84號對面人行道","Taishan Dist.","Ming Chi University Of Technology","No.84, Gongzhuan Rd., Taishan Dist.","46","1"
"1383","三民高中(民權路)","36","10","蘆洲區","20171124175943","25.088024","121.473928","民權路100號(對面人行道)","Luzhou Dist.","Sanmin Senior High School(Minquan Rd.)","No.100, Minquan Rd., Luzhou Dist.","25","1"
"1384","環河福德南路口","32","11","三重區","20171124175918","25.060285","121.502173","福德南路71號(對面人行道)","Sanchong Dist.","Huanhe S. & Fude S. Rd.","No.71, Fude S. Rd., Sanchong Dist.","21","1"
"1385","文林國小(潭興街)","34","7","樹林區","20171124175931","24.998601","121.424892","潭興街65號(對面汽車停車格)","Shulin Dist.","Wenlin Elementary School( Tanxing St.)","No. 65, Tan Xing Street, Shulin Dist.","26","1"
"1386","林口老街","42","16","林口區","20171124175936","25.077153","121.393777","中正路115號(東側停車場)","Linkou Dist.","LOINKOU STREET","No. 115, Zhongzheng Rd., Linkou Dist.","26","1"
"1387","板橋果菜批發市場","40","16","板橋區","20171124175930","25.021153","121.450020","板城路/香社一路口","Banqiao Dist.","Banqiao Fruit and Vegetable Wholesale Market","Bancheng Rd./ Siangshe 1nd Rd.,Banqiao Dist.","24","1"
"1388","安和公園","34","9","新店區","20171124175916","24.974110","121.518853","安和路二段163號(東南側空地)","Xindian Dist.","Anhe Park","No.163, Sec. 2, Anhe Rd., Xindian Dist.","25","1"
"1389","東陽市民活動中心","32","19","樹林區","20171124175936","24.982192","121.412517","鎮前街467號(活動中心路側)","Shulin Dist.","Dongyang Civil Activity Center","No.467, Zhenqian St., Shulin Dist","12","1"
"1390","遠雄左岸","40","26","中和區","20171124175940","25.009850","121.487799","中原街90號(對面)","Zhonghe Dist.","Yuanxiong Left Bank","No.90, Zhongyuan 3rd St., Zhonghe Dist.","14","1"
"1391","瓦磘溝(福真里)","32","15","中和區","20171124175936","25.004294","121.494692","中山路二段312巷33弄27號","Zhonghe Dist.","Wayao Ditch (Fuzhen Village)","No.27, Aly. 33, Ln. 312, Sec. 2, Zhongshan Rd., Zhonghe Dist.","17","1"
"1392","中正路161巷口","36","5","中和區","20171124175924","24.992938","121.499333","中正路161巷26弄5號(對面空地)","Zhonghe Dist.","Ln.161,Zhongzheng & Zhongzheng Intersection","No.5, Aly. 26, Ln. 161, Zhongzheng Rd., Zhonghe Dist","31","1"
"1394","瑞峰橋","28","15","瑞芳區","20171124175937","25.107120","121.810410","三爪子坑路115號(對面汽車停車格)","Ruifang Dist.","Ruifeng Bridge","No.115, Sanzhuazikeng Rd.(opposite)","13","1"
"1395","民族二街明峰街口","30","17","汐止區","20171124175936","25.071049","121.635015","汐止區明峰街13號(右側路側)","Xizhi Dist.","Minzu 2nd & Mingfeng Intersection","No.13, Mingfeng St., Xizhi Dist.","13","1"
"1401","光復國小","38","14","板橋區","20171124175919","25.015064","121.481930","長壽街168號(對面人行道)","Banqiao Dist.","Kuangfu Elementary School","No.168, Changshou St., Banqiao Dist.","23","1"
"1402","世貿國家公園社區","30","9","汐止區","20171124175914","25.072887","121.658646","長江路101號(對面)","Xizhi Dist.","Shi Mao National Park Community","No.101, Changjiang St., Xizhi Dist.","21","1"
"1403","新店新和國小","42","14","新店區","20171124175936","24.984975","121.517682","安和路三段113號(對面人行道)","Xizhi Dist.","Hsin Tien Xinhe Elementary School","No.113, Sec. 3, Anhe Rd., Xindian Dist.","28","1"
"1404","立德青雲路口","36","20","土城區","20171124175917","24.988355","121.460675","立德路2號(對面)","Tucheng Dist.","Lide & Qingyun Intersection","No.2, Lide Rd., Tucheng Dist.","15","1"
"1405","新北市林口行政園區","42","17","林口區","20171124175941","25.070158","121.363632","忠孝二路55號","Linkou Dist.","New TaipeiCity Linkou Administrative Park","No.55, Zhongxiao 2nd Rd., Linkou Dist.","25","1"
"1406","工建樟樹一路口","36","16","汐止區","20171124175915","25.063062","121.641033","工建路50 號(對面路側)","Xizhi Dist.","Gongjian & Zhangshu 1st Intersection","No.50, Gongjian Rd., Xizhi Dist.","20","1"
"1407","中和青年社會住宅","32","11","中和區","20171124175942","24.991135","121.519329","景德街7號","Zhonghe Dist.","Zhonghe Youth Rental House","No.7, Ln. 127, Xiufeng St., Zhonghe Dist.","21","1"
"1408","蘆洲李宅古蹟","30","11","蘆洲區","20171124175933","25.084959","121.466551","中正路185巷68弄9號(對面人行道)","Luzhou Dist.","Luzhou Lee Family Historic Estate","No.9, Aly. 68, Ln. 185, Zhongzheng Rd., Luzhou Dist.","19","1"
"1409","捷運府中站(2號出口)","38","26","板橋區","20171124175920","25.009537","121.460148","府中路5號(後方人行道)","Banqiao Dist.","MRT Fuzhong Sta.(Exit.2)","No.5, Fuzhong Rd., Banqiao Dist.","12","1"
"1410","新莊勞工中心","32","5","新莊區","20171124175925","25.020332","121.433736","新樹路222號","Xinzhuang Dist.","Xinzhuang Labors Center","No.222, Xinshu Rd., Xinzhuang Dist.","26","1"
"1411","名利橋","32","15","永和區","20171124175941","25.007850","121.500986","仁愛路352巷96號(對面廣場)","Yonghe Dist.","Minli Bridge","No.96, Ln. 352, Ren’ai Rd., Yonghe Dist.","17","1"
"1412","捷運大坪林站(1號出口)","28","6","新店區","20171124175936","24.982755","121.541249","北新路三段129號(右側人行道)","Xindian Dist.","MRT DaPingLin Station(Exit. 1)","No.129, Sec. 3, Beixin Rd., Xindian Dist.","22","1"
"1413","福和國中停車場","48","14","永和區","20171124175924","25.005011","121.522665","永亨路99號(對向人行道)","Yonghe Dist.","Fuhe Junior High School Parking Lot","No.99, Yongheng Rd., Yonghe Dist.","31","1"
"1415","福美公園","40","6","新莊區","20171124175938","25.055033","121.461081","福美街/福美街62巷口(西北側人行道)","Xinzhuang Dist.","Fumei Park","Fumei St./Ln. 62, Fumei St., Xinzhuang Dist.","32","1"
"1416","輔仁大學附設醫院","40","1","新莊區","20171124175833","25.039272","121.431004","三泰路66號(對面人行道)","Xinzhuang Dist.","Fu Jen Catholic University Hospital","No.66, Santai Rd., Xinzhuang Dist.","38","1"
"1417","民視數位媒體總部","40","29","林口區","20171124175931","25.079876","121.379259","信義路99號(前廣場)","Linkou Dist.","FTV Digital Media Headquarter","No.99, Xinyi Rd., Linkou Dist.","11","1"
"1418","五股成州郵局","32","16","五股區","20171124175930","25.101774","121.451127","凌雲路一段80巷9號(對面人行道)","Wugu Dist.","Wugu Chengzhou Post Office","No.9, Ln. 80, Sec. 1, Lingyun Rd., Wugu Dist.","16","1"
"1424","光明市場","34","8","三重區","20171124175936","25.057335","121.491809","光明路67-1號(對面)","Sanchong Dist.","Guangming Market","No.67-1, Guangming Rd., Sanchong Dist.","26","1"
"1425","中興路二段100巷口","30","15","新店區","20171124175930","24.971355","121.547496","五峰路63巷/中興路二段100巷口(天橋旁)","Xindian Dist.","Ln. 100, Sec. 2, Zhongxing Rd.","Ln. 63, Wufeng Rd./Ln. 100, Sec. 2, Zhongxing Rd., Xindian Dist.","14","1"
"1426","福和橋","36","16","永和區","20171124175929","25.004536","121.527850","環河西路三段90號前","Yonghe Dist.","Fuhe Bridge","No.90, Sec. 3, Huanhe E. Rd., Yonghe Dist.","20","1"
"1427","土城國中","32","0","土城區","20171124175927","24.962443","121.430347","永寧路18號(對面)","Tucheng Dist.","Tucheng Junior High School","No.18, Yongning Rd., Tucheng Dist.","32","1"
"1428","安光公園","34","8","新店區","20171124175944","24.964233","121.514462","安民街安民街3巷15號(對面公園)","Xindian Dist.","Anguang Park","No.15, Ln. 3, Anmin St., Xindian Dist.","25","1"
"1440","華江一華江九路口","40","11","板橋區","20171124175942","25.032884","121.466442","華江一路/華江九路口(東南側人行道)","Banqiao Dist.","Huajiang 1st Rd. /9th Rd. Intersection","Huajiang 1st Rd./ Huajiang 9th Rd, Banciao Dist.","28","1"
